序號,縣市及鄉鎮市區,村里,避難收容處所地址,經度,緯度,避難收容處所名稱,預計收容村里,預計收容人數,適用災害類別,管理人姓名,管理人電話,室內,室外,適合避難弱者安置,river_distance_m,river_distance_category,mean_elevation,std_elevation,max_slope,terrain_risk,is_warning_zone,is_critical_zone,index_station,station_id,station_name,rain_1hr,rain_3hr,rain_24hr,nearest_station_distance_m,nearest_station_name,nearest_rain_1hr,nearest_rain_3hr,nearest_rain_24hr,dynamic_risk,river_risk,slope_risk,rain_risk,risk_score
46,花蓮縣秀林鄉,和平村,和平112號,121.748879,24.308073,和平國小,和中部落,250,"水災,土石流",蔡金郎,03-868113,是,否,否,865.6731620846823,500-1000m,27.502351140126624,17.994240499848075,45.47325489245612,HIGH,False,False,7,C0TA40,秀林,1.0,12.0,264.0,1890.4534798098125,秀林,1.0,12.0,264.0,WARNING,0.6491634366090646,0.5512734142676556,0.5,0.5675892270934693
1306,花蓮縣富里鄉,豐南村,豐南7鄰12-3號,121.2686,23.143,豐南社區活動中心,豐南村,50,"水災,震災,土石流,海嘯",黃瓊瑤,03-8831820,是,否,是,53.52427211311938,<500m,299.4591485256446,13.260633382071601,41.046370980695286,HIGH,False,False,78,C1S850,豐南,0.0,0.0,115.0,2396.0343891434313,豐南,0.0,0.0,115.0,WARNING,0.9887874429127009,0.4927238741112949,0.0,0.49389276725283376
1332,花蓮縣富里鄉,富南村,富南村4鄰42-1號,121.2399,23.1612,玉寶宮,富南村,20,"水災,土石流",鄧仲量,03-8831822,是,否,是,277.1759889651319,<500m,240.63090767245217,7.8382103154261635,29.891892541055007,HIGH,False,False,168,C0T9N0,富里,2.0,2.0,124.0,1509.3041684256311,富里,2.0,2.0,124.0,WARNING,0.8952608826576883,0.3451958168270444,1.0,0.7669000539783042
1342,花蓮縣富里鄉,永豐村,永豐10鄰20-1號,121.2565,23.1714,永豐社區活動中心,永豐村,50,"水災,土石流",黃瓊瑤,03-8831821,是,否,是,342.78591644594366,<500m,257.4568151540308,22.75303856265916,32.28624886500252,HIGH,False,False,168,C0T9N0,富里,2.0,2.0,124.0,729.6529463320105,富里,2.0,2.0,124.0,WARNING,0.8678241568313382,0.37686334290902834,1.0,0.7667974577636768
1350,花蓮縣富里鄉,富里村,中山路205號,121.247624,23.174527,富里老人文康中心,富里村,100,"水災,土石流",古智雄,03-8831048,是,否,是,294.44057603608655,<500m,238.32434659181177,18.28400531387887,30.526334277140307,HIGH,False,False,168,C0T9N0,富里,2.0,2.0,124.0,366.7755182668359,富里,2.0,2.0,124.0,WARNING,0.8880411864903748,0.35358688211003314,1.0,0.7668904799046411
1353,花蓮縣卓溪鄉,古風村,23鄰16-1號,121.2359,23.1784,石平社區活動中心,古風村石平社區,50,"水災,土石流",林章成,03-8881852,是,否,是,201.07947883287818,<500m,265.35810859851796,54.847786794520275,49.29889358593531,HIGH,False,False,168,C0T9N0,富里,2.0,2.0,124.0,1569.908021412582,富里,2.0,2.0,124.0,WARNING,0.9270828822392505,0.601870943087537,1.0,0.8550402917099987
1355,花蓮縣富里鄉,富里村,中山路376號,121.2503,23.1795,富里鄉公所2樓,富里村,100,"水災,土石流",陳伯昇,03-8831111,是,否,是,724.8704943402179,500-1000m,246.17891436468935,28.573259310084186,32.616479363973724,HIGH,False,False,168,C0T9N0,富里,2.0,2.0,124.0,875.6009550344379,富里,2.0,2.0,124.0,WARNING,0.7080442239968172,0.3812309396759106,1.0,0.7121847603016591
1379,花蓮縣富里鄉,石牌村,8鄰富北34-2號,121.2643,23.1928,石牌社區活動中心,石牌村,30,"水災,土石流",王貞予,03-8831323,是,否,是,157.99084541481645,<500m,217.7405811119274,12.674413449210222,27.666911420642784,HIGH,False,False,85,01T720,明里,0.0,0.0,142.0,1668.4599460343231,明里,0.0,0.0,142.0,WARNING,0.9451016648643221,0.31576843087038325,0.0,0.4255161119636277
1386,花蓮縣富里鄉,明里村,3鄰明里37號,121.2522,23.1998,明里社區活動中心,明里村,50,"水災,土石流",徐祥寶,03-8846057,是,否,是,823.202535117492,500-1000m,222.76228475692258,21.376596869510504,45.127977759573895,HIGH,False,False,85,01T720,明里,0.0,0.0,142.0,284.7157665169104,明里,0.0,0.0,142.0,WARNING,0.6669237816134511,0.5467068121701727,0.0,0.39743536721575967
1389,花蓮縣富里鄉,羅山村,9鄰東湖39號,121.2776,23.2021,羅山縱管處,羅山村,50,"水災,土石流",徐祥寶,03-8821330,是,否,是,194.40087495828084,<500m,222.57304280443415,11.16499422700819,30.42821718896114,HIGH,False,False,55,C0Z020,明里,0.0,0.0,139.0,1725.1212157721745,明里,0.0,0.0,139.0,WARNING,0.929875737382456,0.35228919495381256,0.0,0.43114326657000335
1422,花蓮縣卓溪鄉,古風村,崙天18號,121.2645,23.2192,古風國小,古風村崙天,100,"水災,土石流",黃印龍,03-8846058,是,否,是,344.39091303009496,<500m,211.24118607565913,14.611808171023034,43.36571143105399,HIGH,False,False,55,C0Z020,明里,0.0,0.0,139.0,1181.680954781384,明里,0.0,0.0,139.0,WARNING,0.8671529801828887,0.5233992474757919,0.0,0.46052331730674856
1426,花蓮縣卓溪鄉,古風村,1鄰20號,121.2649,23.2202,崙天社區活動中心,古風村崙天社區,50,"水災,土石流",林章成,03-8881852,是,否,是,461.38487242884037,<500m,211.36301327527053,18.54578513395098,46.451935104090396,HIGH,False,False,55,C0Z020,明里,0.0,0.0,139.0,1298.2652874100254,明里,0.0,0.0,139.0,WARNING,0.8182285062410255,0.5642173444662961,0.0,0.45564518052424774
1434,花蓮縣富里鄉,竹田村,1鄰東竹10號,121.2899,23.2261,新興竹田聯合社區活動中心,新興村,80,"水災,土石流",陳韋睿,03-8821423,是,否,是,585.7845153095101,500-1000m,238.52522567369684,26.826757524535072,26.09620052101351,LOW,False,False,10,C2TA60,六十石,0.5,0.5,196.5,2941.941588409364,六十石,0.5,0.5,196.5,SAFE,0.7662071273786423,0.2949943598251595,0.25,0.4441708025300727
1474,花蓮縣富里鄉,萬寧村,7鄰鎮寧100號,121.2982,23.251,萬寧社區活動中心,萬寧村,50,"水災,土石流",彭家玲,03-8861120,是,否,是,587.0400516281233,500-1000m,185.01412708389245,6.923329462643441,20.54016931620586,LOW,False,False,120,81T910,東里國中,0.0,0.0,172.5,1453.3014380530926,東里國中,0.0,0.0,172.5,SAFE,0.7656820878448173,0.221510826346531,0.0,0.3344419786496453
1487,花蓮縣富里鄉,東里村,1鄰福安路6-1號,121.3052,23.2673,東里社區活動中心,東里村,50,"水災,土石流",廖維正,03-8861165,是,否,是,660.1283386824495,500-1000m,163.92257891858148,5.132992919596025,20.56149949821276,LOW,False,False,155,C0Z300,東里,0.0,0.0,181.0,138.7432961671548,東里,0.0,0.0,181.0,SAFE,0.7351180654472375,0.22179293727892696,0.0,0.3238292040902112
1495,花蓮縣玉里鎮,長良里,長良143-1號,121.2878,23.2768,長良社區活動中心,長良里,20,"水災,土石流",吳光玉,03-8801450,是,否,否,329.78532147430934,<500m,168.9406016503956,8.33335985328903,41.998334280402936,HIGH,False,False,104,O1T810,卓清國小,1.0,1.0,143.0,1628.130316148883,卓清國小,1.0,1.0,143.0,WARNING,0.8732607389693153,0.5053144490065478,0.5,0.6322355933412247
1500,花蓮縣卓溪鄉,卓清村,1鄰13號,121.2725,23.2775,清水社區活動中心,卓清村清水,50,"水災,土石流",劉筠捷,03-8885593,是,否,是,195.42757098067017,<500m,253.13394585648868,68.69474064432717,53.45540706133408,HIGH,False,False,104,O1T810,卓清國小,1.0,1.0,143.0,115.57669622332756,卓清國小,1.0,1.0,143.0,WARNING,0.9294463941663469,0.656844589898509,0.5,0.6973596149277741
1501,花蓮縣富里鄉,吳江村,6鄰吳江65-3號,121.3227,23.2787,吳江社區活動中心,吳江村,70,"水災,土石流",彭家玲,03-8861180,是,否,是,103.77441594180051,<500m,168.5402246747698,28.64706461199174,44.658267151511616,HIGH,False,False,155,C0Z300,東里,0.0,0.0,181.0,2091.9885708699676,東里,0.0,0.0,181.0,WARNING,0.967773863536845,0.540494464917165,0.0,0.5008691917130452
1528,花蓮縣卓溪鄉,卓清村,12鄰18號,121.2703,23.2956,卓樂社區活動中心,卓清村卓樂社區,50,"水災,土石流",劉筠捷,03-8885593,是,否,是,406.4296983606418,<500m,231.14816121304972,60.50859907225679,57.18361601931424,HIGH,False,False,80,01T220,卓麓(4),0.0,0.0,146.0,343.31536304691826,卓麓(4),0.0,0.0,146.0,WARNING,0.841209632749502,0.7061535224225017,0.0,0.5062694281890762
1555,花蓮縣玉里鎮,樂合里,樂合65-5號,121.345,23.3183,樂合社區活動中心,樂合里,35,"水災,土石流",陳阿洲,03-8887126,是,否,否,205.64166617614225,<500m,188.47014778764228,52.27014564782927,62.64292578643345,HIGH,False,False,60,C0Z061,玉里,0.0,0.0,148.0,651.3636095566656,玉里,0.0,0.0,148.0,WARNING,0.925175069075729,0.7783578274838511,0.0,0.5573186224216604
1559,花蓮縣玉里鎮,源城里,水源57-1號,121.3004,23.3219,源城社區活動中心,源城里,35,"水災,土石流",徐永成,03-8889333,是,否,否,27.763612593400396,<500m,175.61787498149883,22.879446676154465,42.56365781819225,HIGH,False,False,131,C0Z170,卓溪,0.0,0.0,144.0,2496.618230924458,卓溪,0.0,0.0,144.0,WARNING,0.9995600222994895,0.5127913636573243,0.0,0.5036834169020186
1564,花蓮縣玉里鎮,中城里,信義路5號,121.3139,23.3275,玉里慈惠堂,中城里,40,"水災,土石流",何正雄,03-8882921,是,否,否,516.1719241205674,500-1000m,134.1840439192924,3.707416434852124,7.027658870546973,LOW,False,False,131,C0Z170,卓溪,0.0,0.0,144.0,2179.4562458587757,卓溪,0.0,0.0,144.0,SAFE,0.7953176850617214,0.04279566490994803,0.0,0.29119988924458684
1576,花蓮縣玉里鎮,泰昌里,中正路144號,121.3153,23.3352,中正堂,國武里、泰昌里、啟模里、永昌,100,"水災,土石流",邱國峰,03-8883166206,是,否,否,1176.0973723790783,>=1000m,131.78364103123704,3.5907947775697426,8.887100060263958,LOW,False,False,131,C0Z170,卓溪,0.0,0.0,144.0,1625.5415778759273,卓溪,0.0,0.0,144.0,SAFE,0.5193503995469606,0.06738845495725289,0.0,0.20198917632861207
1589,花蓮縣玉里鎮,東豐里,東豐石岡32之1號,121.3399,23.3389,東豐社區活動中心,東豐里,25,"水災,土石流",黎煥發,03-8883720,是,否,否,487.25795146399037,<500m,138.44852984566174,27.0391905969148,31.459419330776214,HIGH,False,False,60,C0Z061,玉里,0.0,0.0,148.0,1927.0240839437317,玉里,0.0,0.0,148.0,WARNING,0.8074089153189274,0.365927775141363,0.0,0.39237145290403347
1601,花蓮縣卓溪鄉,卓溪村,7鄰73號,121.3038,23.3457,卓溪多功能活動中心,卓溪村,50,"水災,土石流",施慧玉,03-8980525,是,否,否,213.01851672209875,<500m,190.65612060796124,35.43930432046589,46.31100498556197,HIGH,False,False,119,81T900,卓溪國小,0.0,0.0,140.5,49.97080013617138,卓溪國小,0.0,0.0,140.5,WARNING,0.9220902214975852,0.562353416295038,0.0,0.4914376024126662
1645,花蓮縣玉里鎮,大禹里,大禹226號,121.3289,23.3805,大禹社區活動中心,大禹里,40,"水災,土石流",張添富,03-8886293,是,否,否,1016.610026500939,>=1000m,103.74068338490457,3.4345776567264896,34.263562719136765,HIGH,False,False,105,O1T820,太平國小,0.0,0.0,157.0,2936.243671877684,太平國小,0.0,0.0,157.0,WARNING,0.5860447360543515,0.40301510546073993,0.0,0.32602018925724496
1662,花蓮縣玉里鎮,觀音里,觀音9-1號,121.3573,23.3951,觀音社區活動中心,觀音里,0,"水災,土石流",李貴福,8851223,是,否,是,295.2009552880973,<500m,109.42267363089829,24.465035306842054,52.92786091245923,HIGH,False,False,54,C1T990,高寮,0.0,0.0,170.5,107.79664110008022,高寮,0.0,0.0,170.5,WARNING,0.887723211484724,0.6498673153542585,0.0,0.505663318625931
1672,花蓮縣卓溪鄉,太平村,1鄰2號,121.3205,23.406,太平國小,太平村,100,"水災,土石流",林進明,03-8888713,是,否,是,416.47897137211584,<500m,170.18213559849667,58.80471492470148,49.492662515864026,HIGH,False,False,105,O1T820,太平國小,0.0,0.0,157.0,47.2449313399833,太平國小,0.0,0.0,157.0,WARNING,0.8370072329152607,0.6044337122881875,0.0,0.4742826452067975
1673,花蓮縣卓溪鄉,太平村,6鄰79-1號,121.3166,23.4071,太平社區活動中心,太平村,50,"水災,土石流",潘佳屏,03-8841364,是,否,是,147.85576831852535,<500m,129.67033176704473,19.68646008086045,50.2527614799989,HIGH,False,False,105,O1T820,太平國小,0.0,0.0,157.0,390.33033234082814,太平國小,0.0,0.0,157.0,WARNING,0.9493399462067483,0.6144867079642639,0.0,0.5166149935616411
1706,花蓮縣玉里鎮,松浦里,松浦214-3號,121.3737,23.4293,松浦社區活動中心,松浦里,0,"水災,土石流",林誠觀,03-8851650,是,否,否,145.44961019511345,<500m,96.41305025349914,18.238266058604545,44.36047715932647,HIGH,False,False,11,C2TA70,赤科坪,0.0,0.0,204.0,3840.223748471657,赤科坪,0.0,0.0,204.0,WARNING,0.950346152176816,0.536555923167903,0.0,0.49358793021225644
1711,花蓮縣玉里鎮,三民里,三民131-2號,121.3498,23.4321,三民社區活動中心,三民里,25,"水災,土石流",彭新發,03-8841164,是,否,否,147.06045760727835,<500m,97.0742092015792,14.092576219346215,44.00849215465779,HIGH,False,False,57,C1Z040,立山,0.0,0.0,160.0,2608.493003988655,立山,0.0,0.0,160.0,WARNING,0.9496725288321083,0.5319006034043701,0.0,0.49195556611254887
1718,花蓮縣卓溪鄉,古風村,12鄰4號,121.332,23.4363,古楓社區活動中心,古風村卓楓、白端社區,50,"水災,土石流",林章成,03-8881852,是,否,是,268.9376906824993,<500m,208.2503106220191,46.622905808841914,47.453662665302076,HIGH,False,False,57,C1Z040,立山,0.0,0.0,160.0,913.177096407663,立山,0.0,0.0,160.0,WARNING,0.898705970008568,0.577466096690198,0.0,0.4877869185100582
1719,花蓮縣卓溪鄉,立山村,6鄰58號,121.332,23.4363,立山社區活動中心,立山村,50,"水災,土石流",高雅芯,03-8841572,是,否,是,268.9376906824993,<500m,208.2503106220191,46.622905808841914,47.453662665302076,HIGH,False,False,57,C1Z040,立山,0.0,0.0,160.0,913.177096407663,立山,0.0,0.0,160.0,WARNING,0.898705970008568,0.577466096690198,0.0,0.4877869185100582
1726,花蓮縣卓溪鄉,崙山村,1鄰12號,121.3443,23.4391,崙山國小,崙山村、立山村,100,"水災,土石流",莊凱杰,03-8841350,是,否,是,1082.7218101410544,>=1000m,162.84708940745008,31.124012502508915,45.811632154146885,HIGH,False,False,57,C1Z040,立山,0.0,0.0,160.0,1792.4297408996977,立山,0.0,0.0,160.0,WARNING,0.558398144276677,0.5557487593334545,0.0,0.3621639782968733
1727,花蓮縣卓溪鄉,崙山村,1鄰11-1號,121.3438,23.4393,崙山社區活動中心,崙山村,50,土石流,施鎮村,03-8841362,是,否,是,1128.8098887391711,>=1000m,168.50003550051431,30.455835156138832,45.811632154146885,HIGH,False,False,57,C1Z040,立山,0.0,0.0,160.0,1737.3318480585174,立山,0.0,0.0,160.0,WARNING,0.5391250552044538,0.5557487593334545,0.0,0.3554183971215951
1757,花蓮縣玉里鎮,春日里,75-1號,121.3967,23.455,春日社區活動中心,春日里,35,"水災,土石流",陳青廉,03-8875453,是,否,否,239.56721982495543,<500m,93.23346433055644,4.723424658753097,15.3510545050099,HIGH,False,False,153,C0Z280,德武,0.0,0.0,170.0,2569.0285851212507,德武,0.0,0.0,170.0,WARNING,0.9109880984493426,0.1528800937431913,0.0,0.36470986258022725
1771,花蓮縣瑞穗鄉,舞鶴村,14鄰中正南路二段278號,121.3536,23.4602,舞鶴社區活動中心,舞鶴村,100,"水災,土石流",楊明林,03-8871755,是,否,是,1262.9288866789705,>=1000m,229.88353063622299,6.972891229106177,49.79938822324684,HIGH,False,False,14,C2TA90,加納納,0.0,0.0,153.5,940.4902428961996,加納納,0.0,0.0,153.5,WARNING,0.4830392414279444,0.6084904369458384,0.0,0.35161086558353205
1778,花蓮縣豐濱鄉,靜浦村,64號,121.4954,23.4615,靜浦國小大禮堂,靜浦村,0,"水災,震災",李楊元,03-8781021,是,否,是,201.16047896761498,<500m,18.59616715898101,16.17456837759927,54.61034448268436,HIGH,False,False,58,C0T9M0,靜浦,0.0,0.0,200.0,702.3637460295497,靜浦,0.0,0.0,200.0,WARNING,0.9270490096444466,0.6721196809732455,0.0,0.5261030576675298
1796,花蓮縣玉里鎮,德武里,5鄰能雅79號,121.4074,23.4669,德武里原住民多功能活動中心,德武里,50,"水災,土石流",余榮富,03-8873161,是,否,否,333.38987885202897,<500m,147.05061723358776,30.710129364316966,43.671416755432936,HIGH,False,False,153,C0Z280,德武,0.0,0.0,170.0,882.8651720247439,德武,0.0,0.0,170.0,WARNING,0.8717533870136717,0.5274424766461315,0.0,0.4633464284486245
1829,花蓮縣豐濱鄉,港口村,7鄰118號,121.5043,23.4745,港口活動中心,港口村,0,"水災,震災,土石流",蕭清秀,03-8791450,是,否,是,791.1281037279284,500-1000m,35.58046254299331,25.98027895714102,49.47690815413508,HIGH,False,False,117,81T880,石梯坪,0.0,0.0,193.0,1192.5523011971738,石梯坪,0.0,0.0,193.0,WARNING,0.680336650882799,0.6042253466176454,0.0,0.41938543179427323
1868,花蓮縣瑞穗鄉,瑞美村,仁愛路109號,121.3904,23.4909,瑞穗青蓮寺,全鄉,100,"水災,土石流",張雲艽,03-8875438,是,否,是,157.09433244501236,<500m,82.034118325703,3.1329949562460446,19.345412789741587,HIGH,False,False,153,C0Z280,德武,0.0,0.0,170.0,2774.6067475634995,德武,0.0,0.0,170.0,WARNING,0.9454765681982646,0.205709091623501,0.0,0.39262952635644294
1870,花蓮縣瑞穗鄉,鶴岡村,167 號,121.39,23.4913,花蓮縣鶴岡國民小學,鶴岡村,100,"水災,震災",蔡伍原,03-8872740,否,否,否,137.84523543062596,<500m,82.40750008797158,3.1620223949498,10.432133254273152,HIGH,False,False,153,C0Z280,德武,0.0,0.0,170.0,2834.5749189326693,德武,0.0,0.0,170.0,WARNING,0.9535261457159809,0.08782291514158828,0.0,0.36008102554306975
1874,花蓮縣瑞穗鄉,瑞良村,4鄰信義路3號,121.394,23.4924,瑞良社區活動中心,瑞良村,30,"水災,土石流",黃義雄,03-8872559,是,否,是,305.18505748263397,<500m,77.27213046650395,5.138982123083691,28.979772494709103,HIGH,False,False,153,C0Z280,德武,0.0,0.0,170.0,2635.801441804219,德武,0.0,0.0,170.0,WARNING,0.883548064749287,0.3331322049624837,0.0,0.40918148415099553
1878,花蓮縣瑞穗鄉,瑞美村,中山路二段389號,121.3916,23.4931,花蓮縣瑞穗鄉瑞美國民小學,瑞美村、瑞良村,50,"水災,土石流",簡三其,03-8872014,是,否,是,91.51223703707895,<500m,79.21338776958233,4.625392943991501,10.668399296834545,HIGH,False,False,153,C0Z280,德武,0.0,0.0,170.0,2856.8933186391882,德武,0.0,0.0,170.0,WARNING,0.9729016552226519,0.09094774705999077,0.0,0.3677999034459254
1880,花蓮縣瑞穗鄉,瑞美村,13鄰中山路二段387號,121.3912,23.4937,瑞美社區活動中心,瑞美村,30,"水災,土石流",蘇院林,03-8871611,是,否,是,136.93335090505641,<500m,78.97472960413718,4.748627476584637,10.075522722360185,HIGH,False,False,153,C0Z280,德武,0.0,0.0,170.0,2933.3642456140988,德武,0.0,0.0,170.0,WARNING,0.9539074771192302,0.08310641860031927,0.0,0.35879954257182634
1883,花蓮縣瑞穗鄉,奇美村,2鄰40號,121.4467,23.4942,奇美社區活動中心,奇美村,20,"水災,土石流",蔣國雄,03-8991001,是,否,是,188.39339518652915,<500m,63.718882655124276,32.61402305673542,66.62851217230804,HIGH,False,False,103,O1T800,奇美國小,0.0,0.0,183.0,312.09366717656087,奇美國小,0.0,0.0,183.0,WARNING,0.9323879421925146,0.8310708090749112,0.0,0.5756570224898534
1891,花蓮縣萬榮鄉,紅葉村,1鄰9號,121.3446,23.4954,紅葉社區活動中心,紅葉村,50,"水災,土石流,海嘯",胡春花,03-8871426,是,否,是,535.4892023056605,500-1000m,206.00612958239876,47.56329031704627,45.97314236822863,HIGH,False,False,56,C1Z030,紅葉,0.0,0.0,147.5,643.4374045073305,紅葉,0.0,0.0,147.5,WARNING,0.7872395955770053,0.5578848778659325,0.0,0.4428993218117316
1894,花蓮縣瑞穗鄉,瑞穗村,成功北路18號,121.3759,23.4982,花蓮縣立瑞穗國民中學,全鄉,200,"水災,土石流",賴慶翰,03-8873111,是,否,是,1144.1367945509512,>=1000m,100.47675701449182,5.053010071070563,8.308131317987128,LOW,False,False,118,81T890,瑞北國小,0.0,0.0,134.0,3029.539328105098,瑞北國小,0.0,0.0,134.0,SAFE,0.532715657592376,0.05973107014642518,0.0,0.20436980120125914
1901,花蓮縣瑞穗鄉,瑞祥村,4鄰祥北路二段127號,121.3588,23.4998,瑞祥社區活動中心,瑞祥村,30,"水災,土石流",黃崧庭,03-8876570,是,否,是,106.02688068842785,<500m,147.1249031237992,27.791034478135032,44.24522343699684,HIGH,False,False,56,C1Z030,紅葉,0.0,0.0,147.5,2171.9881915732667,紅葉,0.0,0.0,147.5,WARNING,0.9668319289842606,0.5350315885392534,0.0,0.4989006517062672
1902,花蓮縣瑞穗鄉,瑞穗村,14鄰民生街41號,121.3787,23.4998,瑞穗社區活動中心,瑞穗村,30,"水災,土石流",吳萬德,03-8872964,是,否,是,830.3972689783313,500-1000m,94.07487247233487,4.984613575091226,8.308131317987128,LOW,False,False,118,81T890,瑞北國小,0.0,0.0,134.0,2864.504011978762,瑞北國小,0.0,0.0,134.0,SAFE,0.6639150914972924,0.05973107014642518,0.0,0.25028960306797987
1913,花蓮縣壽豐鄉,豐裡村,中山路257號,121.3021,23.5034,豐裡活動中心,豐裡村,42,"水災,震災,土石流,海嘯",曾振倫,03-8652802,是,否,是,1611.5913733428597,>=1000m,843.46134972926,96.0273854099223,52.543456798446265,HIGH,False,False,152,C0Z250,瑞穗林道,0.5,1.0,140.0,1267.1543824403584,瑞穗林道,0.5,1.0,140.0,WARNING,0.3372357415638685,0.6447832235736091,0.25,0.39896747661943666
1923,花蓮縣瑞穗鄉,鶴岡村,14鄰85之6號,121.3911,23.5097,鶴岡社區活動中心,鶴岡村,30,"水災,土石流",余新德,03-8873392,是,否,是,471.7644829926029,<500m,91.02101234051821,10.526579264605495,33.57219102627764,HIGH,False,False,148,C0Z210,瑞穗,0.0,0.0,154.0,1575.1603905704217,瑞穗,0.0,0.0,154.0,WARNING,0.8138879660185793,0.39387109005376597,0.0,0.40302211512263253
1957,花蓮縣瑞穗鄉,瑞北村,4鄰祥北路一段54之1號,121.3765,23.5267,瑞北社區活動中心,瑞北村,30,"水災,土石流",李孔忠,03-8871754,是,否,是,353.9328096172418,<500m,99.4256450258184,4.298972667294958,15.095571608069704,HIGH,False,False,118,81T890,瑞北國小,0.0,0.0,134.0,132.77044623998913,瑞北國小,0.0,0.0,134.0,WARNING,0.8631627547615681,0.14950110156001623,0.0,0.34695729463455366
2047,花蓮縣豐濱鄉,豐濱村,16鄰豐里49之1號,121.4859,23.5681,八里灣基督長老教會,豐濱村八里灣部落,0,"水災,震災",吳德助,03-8791653,是,否,是,131.81353461517392,<500m,108.42755735242689,34.36408600531998,54.41400100632206,HIGH,False,False,67,C0T9I0,豐濱,0.0,0.0,195.0,3430.2352741211844,豐濱,0.0,0.0,195.0,WARNING,0.9560484792696726,0.6695228610694813,0.0,0.5354738260652298
2060,花蓮縣瑞穗鄉,富民村,2鄰中正路一段208之1號,121.3745,23.5743,富民社區活動中心,富民村,30,"水災,土石流",劉賢明,03-8811149,是,否,是,725.6776769942538,500-1000m,164.60971021991782,5.117282446579567,15.38084806851649,LOW,False,False,77,C0Z080,富源,0.5,0.5,157.5,1525.6705888012202,富源,0.5,0.5,157.5,SAFE,0.7077066767685102,0.15327414054398855,0.25,0.38117957903217514
2069,花蓮縣萬榮鄉,馬遠村,1鄰5號,121.362553,23.576867,馬遠社區活動中心,馬遠村,120,"水災,土石流,海嘯",溫秀瑛,03-8811184,是,否,是,127.9674042984993,<500m,190.11087047786674,25.479767785883936,39.04113133000904,HIGH,False,False,77,C0Z080,富源,0.5,0.5,157.5,1995.6627344443964,富源,0.5,0.5,157.5,WARNING,0.9576568520730395,0.4662027676645975,0.25,0.5625407285249431
2070,花蓮縣萬榮鄉,馬遠村,2鄰馬遠39號,121.361934,23.576872,馬遠國民小學,馬遠村,200,"水災,土石流,海嘯",溫秀瑛,03-8811184,是,否,是,190.89843403735497,<500m,197.8869235390111,34.85149473027299,39.04113133000904,HIGH,False,False,77,C0Z080,富源,0.5,0.5,157.5,2046.331228913277,富源,0.5,0.5,157.5,WARNING,0.9313403863305674,0.4662027676645975,0.25,0.5533299655150777
2076,花蓮縣瑞穗鄉,富源村,10鄰學士路31號,121.3759,23.5776,富源社區活動中心,富源村,30,"水災,土石流",周玉梅,03-8811434,是,否,是,1114.4236786399324,>=1000m,168.8645663981535,5.10999500921495,5.973230131596346,LOW,False,False,77,C0Z080,富源,0.5,0.5,157.5,1137.1212813641162,富源,0.5,0.5,157.5,SAFE,0.5451410731658897,0.028849891986199878,0.25,0.2869543432039213
2077,花蓮縣瑞穗鄉,富源村,9鄰中正路157號,121.3764,23.5778,富源消防分隊,富源村、富民村、富興村,75,"水災,土石流",方小明,03-8811885,是,否,是,1158.3292225408338,>=1000m,168.3039387683479,5.1778935047888845,5.973230131596346,LOW,False,False,77,C0Z080,富源,0.5,0.5,157.5,1105.7376200421133,富源,0.5,0.5,157.5,SAFE,0.5267806753340507,0.028849891986199878,0.25,0.28052820396277767
2085,花蓮縣瑞穗鄉,富興村,13鄰東興路134號,121.3877,23.5817,富興社區活動中心,富興村,30,"水災,土石流",莊明州,03-8811414,是,否,是,1466.7085725810387,>=1000m,173.2320801976496,6.418180808060369,6.912699360542163,LOW,False,False,77,C0Z080,富源,0.5,0.5,157.5,1169.731642274449,富源,0.5,0.5,157.5,SAFE,0.39782275688435254,0.04127522150516381,0.25,0.2391205313610725
2117,花蓮縣光復鄉,大全村,建國路一段1號,121.4125,23.598,光復自強外役監獄,大全村,300,"水災,震災,土石流",陳萬來,03-8703914#310,是,是,是,841.7621936312147,500-1000m,230.5917838715875,31.64325772415067,47.90847089810853,HIGH,False,False,49,C1T970,大農,0.5,0.5,197.5,1910.3333433978041,大農,0.5,0.5,197.5,WARNING,0.6591625131343688,0.5834813465636814,0.25,0.49325128356613346
2122,花蓮縣光復鄉,大富村,建國路一段 26之2號,121.4162,23.5992,花東山琉璃禪寺,大富村,50,"水災,震災,土石流",簡進發,03-8731340,是,否,是,466.88805606675436,<500m,251.58691847664969,31.69700778637932,38.629594345158715,HIGH,False,False,49,C1T970,大農,0.5,0.5,197.5,1799.535260662643,大農,0.5,0.5,197.5,WARNING,0.8159271877295904,0.46075981914807823,0.25,0.5113024614497801
2130,花蓮縣豐濱鄉,豐濱村,光豐路26號,121.5218,23.6012,豐濱國中禮堂,豐濱村,0,"水災,震災,土石流",劉文彥,03-8791159,是,否,是,135.14236021499332,<500m,36.28316486630286,34.90565568980659,57.256419172757795,HIGH,False,False,86,01T730,豐濱,0.0,0.0,131.0,191.6718591638942,豐濱,0.0,0.0,131.0,WARNING,0.9546564326875042,0.7071164099165081,0.0,0.5462646744155789
2143,花蓮縣光復鄉,大富村,明德路29巷12號,121.3909,23.6073,大富國小,大富村.大豐村,80,"水災,震災,土石流",郭瑛忠,03-8701049,是,是,是,632.8991430913661,500-1000m,181.8063245500837,6.098676341940834,11.294125728455395,LOW,False,False,30,81T770,大豐,0.0,0.0,143.5,1509.2408031244358,大豐,0.0,0.0,143.5,SAFE,0.7465047564952211,0.09922354456571505,0.0,0.29104372814304186
2177,花蓮縣光復鄉,大興村,民權街17號,121.3982,23.6323,大興國小,大興村,300,"水災,震災,土石流",陳吉文,03-8702987,是,是,是,442.12422905851116,<500m,151.0000970000753,4.207470822176151,8.841956744641154,HIGH,False,False,139,88T920,大興,0.0,0.0,189.5,58.38003354798134,大興,0.0,0.0,189.5,WARNING,0.8262829122079484,0.0667913938136736,0.0,0.309236437416884
2180,花蓮縣光復鄉,大興村,民權街37號,121.3942,23.6338,大興活動中心,大興村,100,"水災,震災,土石流",劉建榮,03-8702216,是,否,是,286.92081695989,<500m,162.0300458012795,12.84084961548992,33.84364848903115,HIGH,False,False,139,88T920,大興,0.0,0.0,189.5,418.9497495079432,大興,0.0,0.0,189.5,WARNING,0.8911857954844048,0.39746136030548995,0.0,0.43115343651118865
2182,花蓮縣豐濱鄉,新社村,9鄰東興18-1號,121.5308,23.6351,東興部落原住民多功能活動中心,新社村及磯崎村,0,海嘯,石蓮花,03-8711158,是,否,是,2141.847634397423,>=1000m,55.47204308564128,42.40605790600291,57.98536380554229,HIGH,False,False,116,81T870,東興部落,0.0,0.0,139.5,14.922861898466422,東興部落,0.0,0.0,139.5,WARNING,0.11549345025415148,0.7167573614073738,0.0,0.2554499160111651
2185,花蓮縣光復鄉,西富村,民有街51巷3-1號,121.4295,23.6362,馬佛活動中心,西富村,100,"水災,震災,土石流",高有民,03-8702206,是,否,是,693.0590392742856,500-1000m,136.602392000426,4.385235797472356,8.20438559739833,LOW,False,False,53,C0T960,光復,0.0,0.0,147.0,2751.769602052446,光復,0.0,0.0,147.0,SAFE,0.7213471219620144,0.05835893924018502,0.0,0.2699791744587606
2202,花蓮縣光復鄉,南富村,建國路二段39號,121.4512,23.6419,砂荖活動中心,南富村,100,"水災,震災,土石流",吳福鍵,03-8702206,是,否,是,440.2095454218845,<500m,133.32439227391555,10.740751265493454,32.317739280860216,HIGH,False,False,53,C0T960,光復,0.0,0.0,147.0,3390.521144217667,光復,0.0,0.0,147.0,WARNING,0.8270835936291813,0.3772798321155563,0.0,0.4026632074048803
2219,花蓮縣豐濱鄉,新社村,150號,121.5354,23.6519,新社國小二樓綜合教室,新社村,200,"水災,震災,土石流",許傳方,03-8711138,是,否,是,665.1079434501592,500-1000m,58.17358177807006,44.49830369925715,47.80429452572705,HIGH,False,False,116,81T870,東興部落,0.0,0.0,139.5,1905.3336775622445,東興部落,0.0,0.0,139.5,WARNING,0.7330356968792309,0.5821035198983178,0.0,0.43119354987722613
2220,花蓮縣光復鄉,大全村,中山路一段216巷8號,121.4184,23.6521,光復鄉立托兒所,大全村.大進村,100,"水災,震災,土石流",羅彩和,03-8705165,是,是,是,335.51252511313743,<500m,123.08474994970828,1.6905556738184944,10.495211480653406,HIGH,False,False,53,C0T960,光復,0.0,0.0,147.0,1163.6945044654603,光復,0.0,0.0,147.0,WARNING,0.8708657398887851,0.08865718168709923,0.0,0.3314001634672045
2227,花蓮縣光復鄉,西富村,中正路二段72巷14號,121.4494,23.6584,西南活動中心,西富村,100,"水災,震災,土石流",劉貴滿,03-8702923,是,否,是,364.4614874088604,<500m,112.30442178486199,2.052883102364917,14.215460387865074,HIGH,False,False,53,C0T960,光復,0.0,0.0,147.0,2505.6280861572777,光復,0.0,0.0,147.0,WARNING,0.8587598776822252,0.13786083534645335,0.0,0.34192420779271476
2232,花蓮縣光復鄉,北富村,中正路二段23號,121.4484,23.6601,太巴塱國小,北富村.西富村,100,"水災,震災,土石流",林萬男,03-8701134#10,是,是,是,172.02293716899146,<500m,110.8809099996992,2.0088174365968636,14.215460387865074,HIGH,False,False,53,C0T960,光復,0.0,0.0,147.0,2391.5949435869393,光復,0.0,0.0,147.0,WARNING,0.9392337319308178,0.13786083534645335,0.0,0.37009005677972223
2236,花蓮縣光復鄉,大同村,中正路一段370號,121.431,23.6633,大同活動中心,大同村,100,"水災,震災,土石流",吳張義,03-8701180,是,否,是,171.675895509517,<500m,114.47701323311871,1.7767285949316245,12.345524964783575,HIGH,False,False,53,C0T960,光復,0.0,0.0,147.0,680.0013697498342,光復,0.0,0.0,147.0,WARNING,0.9393788576339991,0.11312924957962363,0.0,0.3627213750457867
2244,花蓮縣光復鄉,大華村,中華路257號,121.4233,23.6694,光復鄉公所,大安村、大華村,100,"水災,震災,土石流",黃微鈞,03-8702206#239,是,是,是,736.9607667804647,500-1000m,126.66297296332438,15.095415714838905,41.2724024617713,HIGH,False,False,53,C0T960,光復,0.0,0.0,147.0,978.9720994862223,光復,0.0,0.0,147.0,WARNING,0.7029883200681633,0.4957133447054307,0.0,0.39475991543548633
2247,花蓮縣光復鄉,大馬村,林森路200號,121.4248,23.6705,光復國中,大平村.大馬村.大同村,100,"水災,震災,土石流",葉淑貞,03-8701027,是,是,是,800.3043722754518,500-1000m,124.94813490425621,9.269694288197348,37.04692413943158,HIGH,False,False,53,C0T960,光復,0.0,0.0,147.0,1086.0934201118866,光復,0.0,0.0,147.0,WARNING,0.6764993236075786,0.43982757547249507,0.0,0.36872303590440103
2277,花蓮縣光復鄉,東富村,東富路60號,121.4825,23.6845,東富國小,東富村,100,"水災,震災,土石流",鄭金寶,03-8701292,是,是,是,271.8751978205742,<500m,118.30464114511892,25.34007539388684,35.91431392559773,HIGH,False,False,88,01T9L0,東富,0.0,0.0,149.0,56.12785841748599,東富,0.0,0.0,149.0,WARNING,0.8974775647800471,0.424847781893496,0.0,0.44157148224106524
2293,花蓮縣萬榮鄉,明利村,5鄰75號,121.4018,23.696,馬太鞍社區活動中心,明利村,80,"水災,土石流,海嘯",許花麗,03-8751114,是,否,是,681.8079870072733,500-1000m,225.41236727189045,55.92061474341544,31.396210824185996,HIGH,False,False,136,C0Z200,萬榮,0.0,0.0,131.5,2372.33690512488,萬榮,0.0,0.0,131.5,WARNING,0.7260520812290132,0.3650917855223455,0.0,0.3636457640868583
2323,花蓮縣萬榮鄉,明利村,2鄰34-8號,121.412375,23.704834,明利社區活動中心,明利村,100,"水災,土石流,海嘯",許花麗,03-8751114,是,否,是,1650.8156283434323,>=1000m,170.11798252343402,44.74052914387058,42.1715883086065,HIGH,False,False,136,C0Z200,萬榮,0.0,0.0,131.5,925.9182916986517,萬榮,0.0,0.0,131.5,WARNING,0.32083296272360395,0.5076058900932695,0.0,0.26457330398124224
2333,花蓮縣豐濱鄉,磯崎村,71號,121.5419,23.7085,磯崎村辦公處活動中心,磯崎村,0,"水災,震災,土石流",李貴良,03-8711029,是,否,是,89.9974412504501,<500m,83.96182235824386,44.0464070744602,63.652254408633105,HIGH,False,False,29,81T990,高山部落,0.0,0.0,145.5,1988.3922836896397,高山部落,0.0,0.0,145.5,WARNING,0.9735351117478523,0.7917071106081373,0.0,0.5782494222941894
2337,花蓮縣鳳林鎮,長橋里,長橋路4號,121.4195,23.7097,長橋社區活動中心,長橋里,50,"水災,土石流",董經碩,03-8751131,是,否,否,1047.9419408749045,>=1000m,140.13714589499065,3.4245015510747256,6.267653054304626,LOW,False,False,136,C0Z200,萬榮,0.0,0.0,131.5,81.58488427281762,萬榮,0.0,0.0,131.5,SAFE,0.5729423721697917,0.03274390119892504,0.0,0.21035300061910459
2338,花蓮縣萬榮鄉,明利村,1鄰13-3號,121.414808,23.709766,萬榮鄉立幼兒園,明利村,50,"水災,土石流,海嘯",許花麗,03-8751114,是,否,是,1190.7814716600985,>=1000m,146.60482128688267,9.952355568744746,57.65473572637932,HIGH,False,False,136,C0Z200,萬榮,0.0,0.0,131.5,543.6278921985065,萬榮,0.0,0.0,131.5,WARNING,0.5132098104402574,0.7123845062831758,0.0,0.3933387855390428
2350,花蓮縣萬榮鄉,萬榮村,1鄰8號,121.410119,23.714392,萬榮社區活動中心,萬榮村,50,"水災,土石流,海嘯",陳如花,03-8751497,是,否,是,769.2678368798599,500-1000m,188.30896429723623,54.355638728729474,51.59683468042485,HIGH,False,False,136,C0Z200,萬榮,0.0,0.0,131.5,1168.446666340992,萬榮,0.0,0.0,131.5,WARNING,0.6894781660624449,0.6322632906327995,0.0,0.43099634531169556
2357,花蓮縣鳳林鎮,森榮里,林森路113-1號,121.3972,23.7176,森榮里辦公處,森榮里,30,水災,董經碩,03-8751926,是,否,否,101.68639155965953,<500m,210.26706849079696,59.575779883395626,61.3903053641174,HIGH,False,False,47,C1T940,大觀,0.0,0.0,134.0,2482.625403828584,大觀,0.0,0.0,134.0,WARNING,0.9686470325021406,0.7617907904485611,0.0,0.5675636985103175
2384,花蓮縣鳳林鎮,鳳信里,中正路1段120巷24號,121.4434,23.7297,鳳信社區活動中心,鳳信里,50,"水災,土石流",傅金棟,03-8764212,是,否,否,1341.5907013351073,>=1000m,118.37276064008779,2.4850952020081816,7.182110366058708,LOW,False,False,130,C0Z160,鳳林,0.0,0.0,137.0,2084.7080909772485,鳳林,0.0,0.0,137.0,SAFE,0.4501444841161827,0.04483842551061563,0.0,0.17100209709384862
2397,花蓮縣鳳林鎮,鳳智里,中華路2號,121.449348,23.741218,樂活會館,鳳義里、鳳信里、山興里、南平里,150,"水災,震災,土石流",詹芳雅,03-8762771轉191,是,否,否,1282.8788345245564,>=1000m,106.3267789551529,2.1867431256017413,6.130015690213005,LOW,False,False,130,C0Z160,鳳林,0.0,0.0,137.0,682.3189545813764,鳳林,0.0,0.0,137.0,SAFE,0.47469658246906343,0.030923522680642957,0.0,0.17542086066836507
2401,花蓮縣鳳林鎮,鳳智里,中正路2段1號,121.4472,23.7429,鳳林鎮藝文中心,鳳智里、山興里,300,"水災,震災,土石流",巫賢偉,03-8762031#14,是,是,否,1030.8871804207447,>=1000m,106.00523252881908,2.2091755110127513,11.3789898840043,LOW,False,False,130,C0Z160,鳳林,0.0,0.0,137.0,726.3627171821765,鳳林,0.0,0.0,137.0,SAFE,0.580074323150102,0.1003459497116792,0.0,0.23312979801603945
2403,花蓮縣鳳林鎮,鳳智里,鳳林鎮光復路8號,121.4488,23.7439,鳳林國中進德堂,鳳智里,350,"水災,震災,土石流",鍾孔麟,03-8762021,是,是,否,987.0705435400032,500-1000m,104.43240838138246,2.1943911756901318,11.3789898840043,LOW,False,False,130,C0Z160,鳳林,0.0,0.0,137.0,530.1680112567649,鳳林,0.0,0.0,137.0,SAFE,0.5983975418898457,0.1003459497116792,0.0,0.23954292457494977
2405,花蓮縣鳳林鎮,鳳智里,光華路124號,121.4518,23.7447,鳳林鎮公所,鳳智里,80,"水災,震災,土石流",蕭文龍,03-8762772,是,否,否,1064.1024299461405,>=1000m,102.2702397988767,2.327683268607454,5.689922832965798,LOW,False,False,130,C0Z160,鳳林,0.0,0.0,137.0,226.9226705539383,鳳林,0.0,0.0,137.0,SAFE,0.566184387137772,0.025102896946711355,0.0,0.2056954045822336
2410,花蓮縣鳳林鎮,鳳智里,大同街7-1號,121.451,23.746,"鳳禮,鳳智里活動中心",鳳智里、鳳禮里,60,"水災,土石流",張燕春,03-8763910,是,否,是,899.9569863401182,500-1000m,101.64961733915368,2.317974749224897,9.516814902619075,LOW,False,False,130,C0Z160,鳳林,0.0,0.0,137.0,246.1084267630387,鳳林,0.0,0.0,137.0,SAFE,0.6348266445641373,0.07571700279912799,0.0,0.24490442643718643
2420,花蓮縣鳳林鎮,鳳義里,鳳林鎮水源路56-2號,121.4393,23.7491,鳳義社區活動中心,鳳義里,50,土石流,傅金棟,03-8763004,是,否,否,50.11952844632818,<500m,106.19157463104935,3.149256573251953,8.786844718784536,HIGH,False,False,130,C0Z160,鳳林,0.0,0.0,137.0,1476.0193545672005,鳳林,0.0,0.0,137.0,WARNING,0.9902112368731815,0.06606248746887025,0.0,0.3663926791462746
2422,花蓮縣鳳林鎮,鳳仁里,中華路111號,121.452,23.7498,鳳仁社區活動中心,鳳仁里,50,"水災,土石流",劉清盛,03-8763174,是,否,否,677.1077912577108,500-1000m,97.90028583084582,2.4450950295802008,9.516814902619075,LOW,False,False,130,C0Z160,鳳林,0.0,0.0,137.0,432.81204989183374,鳳林,0.0,0.0,137.0,SAFE,0.7280176066771038,0.07571700279912799,0.0,0.2775212631767247
2429,花蓮縣鳳林鎮,鳳仁里,鳳林鎮光復路94號,121.4518,23.7512,鳳仁國小羽球館,鳳仁里,300,"水災,震災,土石流",鍾肇憲,03-8762201,是,是,否,535.9704405719132,500-1000m,96.93248594869962,2.3499303999839367,9.516814902619075,LOW,False,False,130,C0Z160,鳳林,0.0,0.0,137.0,586.7096416017472,鳳林,0.0,0.0,137.0,SAFE,0.7870383516056233,0.07571700279912799,0.0,0.2981785239017065
2433,花蓮縣鳳林鎮,大榮里,復興路69號,121.4676,23.7523,大榮2村社區活動中心,大榮里,50,"水災,土石流",劉清盛,03-8763419,是,否,否,1041.7060293189463,>=1000m,87.82752932035007,1.9626905908258534,3.791912868494474,LOW,False,False,130,C0Z160,鳳林,0.0,0.0,137.0,1600.4704189623462,鳳林,0.0,0.0,137.0,SAFE,0.5755501024662202,0.0,0.0,0.20144253586317706
2434,花蓮縣鳳林鎮,大榮里,鳳林鎮大榮3路15號,121.4676,23.7523,大榮1村社區活動中心,大榮里,50,"水災,土石流",劉清盛,03-8763419,是,否,否,1041.7060293189463,>=1000m,87.82752932035007,1.9626905908258534,3.791912868494474,LOW,False,False,130,C0Z160,鳳林,0.0,0.0,137.0,1600.4704189623462,鳳林,0.0,0.0,137.0,SAFE,0.5755501024662202,0.0,0.0,0.20144253586317706
2480,花蓮縣鳳林鎮,北林里,民和路1號,121.471,23.7672,北林3村社區活動中心,北林里,50,土石流,戴佳明,8761724,是,否,否,510.86105034989214,500-1000m,82.82039366177986,2.5841173284857426,5.809702596071123,LOW,False,False,45,C1T920,中興,0.0,0.0,115.5,2830.0748316728555,中興,0.0,0.0,115.5,SAFE,0.7975385835314993,0.02668709255464748,0.0,0.287144632002419
2505,花蓮縣鳳林鎮,南平里,自強路368-1號,121.4584,23.7817,南平社區活動中心,南平里,50,"水災,土石流",江麗琴,03-8771735,是,否,否,626.9154603386917,500-1000m,111.12480109857053,4.2212186823450875,8.654274109425424,LOW,False,False,46,C0T900,西林,0.0,0.5,141.0,3763.8696347528157,西林,0.0,0.5,141.0,SAFE,0.7490070098800461,0.06430912136057824,0.0,0.2814451898661896
2506,花蓮縣壽豐鄉,水璉村,水璉二街21號,121.5472,23.7817,水璉活動中心,水璉村,41,"水災,震災,土石流",黃文達,03-8601055,是,否,是,348.3007495949236,<500m,126.9101020384808,47.966913065321435,43.36705124616008,HIGH,False,False,68,C0T9F0,水璉,0.0,0.0,146.0,1774.4270734626311,水璉,0.0,0.0,146.0,WARNING,0.8655179667333399,0.5234169677413151,0.0,0.45995637867906347
2509,花蓮縣萬榮鄉,見晴村,7鄰89號,121.451955,23.783512,見晴國民小學,見晴村,130,"水災,土石流,海嘯",馬麗琴,03-8771034,是,否,是,520.9754417184449,500-1000m,120.88551515924325,4.010577198678648,6.2030111533863375,LOW,False,False,46,C0T900,西林,0.0,0.5,141.0,3320.8775083471573,西林,0.0,0.5,141.0,SAFE,0.7933089525360901,0.03188895364460949,0.0,0.28722481948101436
2534,花蓮縣壽豐鄉,米棧村,米棧路二段21號,121.5243,23.7951,米棧活動中心,米棧村,34,"水災,震災,土石流,海嘯",黃明輝,03-8741367,是,否,是,533.6444757132288,500-1000m,146.82892785615067,76.21295049274667,51.88279854397133,HIGH,False,False,68,C0T9F0,水璉,0.0,0.0,146.0,1869.6763321083768,水璉,0.0,0.0,146.0,WARNING,0.7880110223973738,0.636045421143948,0.0,0.46661748418226523
2561,花蓮縣鳳林鎮,林榮里,永康路54號,121.45,23.8035,林榮社區活動中心,林榮里,50,"水災,土石流",江麗琴,03-8771014,是,否,否,673.9183963603755,500-1000m,154.03611313076087,4.16002878643088,12.711493705755156,LOW,False,False,46,C0T900,西林,0.0,0.5,141.0,1273.9643114992148,西林,0.0,0.5,141.0,SAFE,0.7293513461996135,0.11796951689238573,0.0,0.2906638262375804
2598,花蓮縣壽豐鄉,溪口村,溪口路103巷2號,121.4734,23.8195,溪口活動中心,溪口村,50,"水災,震災,土石流,海嘯",黃素珠,03-8652809,是,否,是,796.1196698404029,500-1000m,112.19197760299076,12.200913154821174,45.412637676567996,HIGH,False,False,114,81T850,溪口國小,0.0,0.0,107.0,25.516078106553454,溪口國小,0.0,0.0,107.0,WARNING,0.678249280325773,0.550471696809834,0.0,0.40252875715697073
2619,花蓮縣壽豐鄉,豐坪村,豐坪路2段73號,121.5096,23.8351,豐坪活動中心,豐坪村,32,"水災,震災,土石流,海嘯",曾振倫,03-8652803,是,否,是,1383.9235109884244,>=1000m,51.10397354024925,2.9468413917909193,4.432873552709164,LOW,False,False,124,C1Z120,壽豐,0.0,0.0,103.5,3962.620121361508,壽豐,0.0,0.0,103.5,SAFE,0.43244177148543317,0.008477284262949952,0.0,0.15389780529878658
2629,花蓮縣壽豐鄉,樹湖村,大樹腳59號,121.4692,23.8407,樹湖活動中心,樹湖村,38,"水災,震災,土石流,海嘯",黃素珠,03-8652810,是,否,是,41.635886627697985,<500m,152.68363080372438,53.56447943404024,40.1632296395171,HIGH,False,False,114,81T850,溪口國小,0.0,0.0,107.0,2361.115732743792,溪口國小,0.0,0.0,107.0,WARNING,0.9937589218581221,0.4810435318096402,0.0,0.4921286821932348
2639,花蓮縣壽豐鄉,豐山村,中山路41號,121.4918,23.8464,豐山國小,豐山村,50,"水災,震災,土石流,海嘯",林忠宏,03-8651640,是,否,是,842.3416434370741,500-1000m,54.043183678996805,2.81547207592058,6.977340801740747,LOW,False,False,124,C1Z120,壽豐,0.0,0.0,103.5,3175.532335861829,壽豐,0.0,0.0,103.5,SAFE,0.6589201991117212,0.04213016297927083,0.0,0.24326111858288366
2643,花蓮縣壽豐鄉,豐山村,中山路127巷15號,121.4936,23.8478,豐山活動中心,豐山村,47,"水災,震災,土石流,海嘯",陳春盛,03-8652801,是,否,是,1001.6233030427575,>=1000m,51.639444138187955,2.6101875987843823,6.977340801740747,LOW,False,False,124,C1Z120,壽豐,0.0,0.0,103.5,2948.5225239953743,壽豐,0.0,0.0,103.5,SAFE,0.5923118763842612,0.04213016297927083,0.0,0.21994820562827266
2660,花蓮縣萬榮鄉,西林村,8鄰134號,121.342737,23.855288,西林社區活動中心,西林村,100,"水災,土石流,海嘯",郭瑪利,03-8771524,是,否,是,2045.522719050345,>=1000m,1150.6322254073589,224.63532219114526,76.22686505505023,HIGH,False,False,84,01T670,新東礦,1.0,1.0,114.0,7637.839892424158,新東礦,1.0,1.0,114.0,WARNING,0.15577455395445794,0.9580176996518321,0.5,0.51692640377961
2668,花蓮縣萬榮鄉,西林村,7鄰103號,121.3593,23.8576,西林天主堂,西林村,100,"水災,土石流,海嘯",郭瑪利,03-8771524,是,否,是,537.26690125752,500-1000m,924.8227133977055,220.983280792191,79.40111321299797,HIGH,False,False,84,01T670,新東礦,1.0,1.0,114.0,6531.910860265452,新東礦,1.0,1.0,114.0,WARNING,0.7864961983409967,1.0,0.5,0.7502736694193488
2688,花蓮縣壽豐鄉,月眉村,月眉路3段24號,121.556384,23.867967,月眉國小,壽豐鄉月眉村,50,"水災,震災,土石流,海嘯",劉康盛,03-8631011,是,否,是,112.9925178600764,<500m,48.37176437416835,11.945415677184357,33.33142483946595,HIGH,False,False,65,C0T9E0,大坑,1.5,1.5,149.5,2960.0954009627258,大坑,1.5,1.5,149.5,WARNING,0.9639190424040972,0.3906867396610271,0.75,0.7170776867397421
2689,花蓮縣壽豐鄉,米棧村,米棧路一段53號,121.5564,23.8681,月眉國小-米棧分校,米棧村,45,"水災,震災,土石流,海嘯",鍾萬仁,03-8741270,是,否,是,125.83776781347689,<500m,47.8642056653553,11.555580622841614,33.33142483946595,HIGH,False,False,65,C0T9E0,大坑,1.5,1.5,149.5,2951.706848166005,大坑,1.5,1.5,149.5,WARNING,0.9585474223661775,0.3906867396610271,0.75,0.7151976197264702
2691,花蓮縣壽豐鄉,壽豐村,壽豐路1段97號,121.5099,23.8691,壽豐活動中心,壽豐村,13,"水災,震災,土石流,海嘯",劉鳳珠,03-8652805,是,否,是,147.50699700876018,<500m,34.76458030981808,1.7776127127070644,25.228166223866154,HIGH,False,False,124,C1Z120,壽豐,0.0,0.0,103.5,268.3515958697855,壽豐,0.0,0.0,103.5,WARNING,0.9494857952142011,0.28351382183253065,0.0,0.41737417487472955
2693,花蓮縣壽豐鄉,共和村,農墾2街38號,121.5308,23.8693,共和活動中心,共和村,31,"水災,震災,土石流,海嘯",劉鳳珠,03-8652804,是,否,是,425.9362488488583,<500m,30.59528900692835,1.7456205688573418,12.660973098326311,HIGH,False,False,124,C1Z120,壽豐,0.0,0.0,103.5,2320.2455246632558,壽豐,0.0,0.0,103.5,WARNING,0.8330523934701327,0.11730133620539718,0.0,0.3267587385761656
2697,花蓮縣壽豐鄉,壽豐村,壽山路26號,121.5091,23.8704,壽豐鄉公所,壽豐鄉各村,50,"水災,震災,土石流,海嘯",李昌貴,03-8654110,否,是,是,190.01533769486431,<500m,34.94276159597088,2.8284230319619614,32.053094261959124,HIGH,False,False,124,C1Z120,壽豐,0.0,0.0,103.5,115.27166817119016,壽豐,0.0,0.0,103.5,WARNING,0.9317096791061805,0.3737796625899527,0.0,0.43823228646414897
2698,花蓮縣壽豐鄉,壽豐村,公園路30號,121.5091,23.8704,文化中心,壽豐村,50,"水災,震災,土石流,海嘯",陳自強,03-8652131-122,是,否,是,190.01533769486431,<500m,34.94276159597088,2.8284230319619614,32.053094261959124,HIGH,False,False,124,C1Z120,壽豐,0.0,0.0,103.5,115.27166817119016,壽豐,0.0,0.0,103.5,WARNING,0.9317096791061805,0.3737796625899527,0.0,0.43823228646414897
2701,花蓮縣壽豐鄉,鹽寮村,鹽寮165號,121.59829,23.871385,鹽寮活動中心,鹽寮村,15,"水災,震災,土石流",黃文達,03-8671123,是,否,是,869.7232870886386,500-1000m,64.30443856952272,58.81405362048356,49.49998499577384,HIGH,False,False,65,C0T9E0,大坑,1.5,1.5,149.5,1951.0742414752206,大坑,1.5,1.5,149.5,WARNING,0.6474697574119874,0.6045305587020691,0.75,0.6704735827048163
2722,花蓮縣壽豐鄉,光榮村,光榮1街26之1號,121.5143,23.8817,光榮活動中心,光榮村,39,"水災,震災,土石流,海嘯",沈佩儀,03-8652806,是,否,是,288.2898498633501,<500m,44.32913821160581,7.442481723189086,32.66238887253268,HIGH,False,False,124,C1Z120,壽豐,0.0,0.0,103.5,1358.031428085726,壽豐,0.0,0.0,103.5,WARNING,0.8906132940069345,0.3818381344134528,0.0,0.4262660932264629
2727,花蓮縣壽豐鄉,平和村,平和路32號,121.5197,23.8837,平和活動中心,平和村,49,"水災,震災,土石流,海嘯",陳美珠,03-8661801,是,否,是,257.84219197162383,<500m,45.575326528354566,7.082568445500325,38.66518490685925,HIGH,False,False,124,C1Z120,壽豐,0.0,0.0,103.5,1850.547838663048,壽豐,0.0,0.0,103.5,WARNING,0.9033458799692359,0.4612305364885391,0.0,0.4545402189357943
2792,花蓮縣壽豐鄉,月眉村,月眉路三段108號,121.554,23.8996,月眉活動中心,月眉村,53,"水災,震災,土石流,海嘯",黃明輝,03-8631116,是,否,是,848.3360661022236,500-1000m,33.8511785896457,2.5342777588521046,16.635105617134016,MEDIUM,False,False,79,C0Z100,東華,0.0,0.0,109.0,641.9760867603705,東華,0.0,0.0,109.0,SAFE,0.6564134545158051,0.16986283005403052,0.0,0.2807035580967409
2804,花蓮縣壽豐鄉,志學村,中正路120巷13號,121.5322,23.9053,志學活動中心,志學村,40,"水災,震災,土石流,海嘯",徐琬玲,03-8661800,是,否,是,818.4864930300636,500-1000m,46.37683677284085,2.5122770409134825,8.895547612004222,MEDIUM,False,False,79,C0Z100,東華,0.0,0.0,109.0,2112.466301576758,東華,0.0,0.0,109.0,SAFE,0.6688959336749839,0.06750018146278097,0.0,0.25436363122507866
2848,花蓮縣壽豐鄉,池南村,池南路2段17號,121.506,23.9197,池南活動中心,池南村,53,"水災,震災,土石流,海嘯",沈佩儀,03-8641008,是,否,是,97.66474259634825,<500m,165.8107393528356,43.282806976448384,45.40879093908899,HIGH,False,False,52,C0T870,鯉魚潭,1.5,1.5,122.5,1790.5015678047187,鯉魚潭,1.5,1.5,122.5,WARNING,0.9703288036031446,0.5504208202305093,0.75,0.7672413273302533
2876,花蓮縣吉安鄉,光華村,光華二街200號,121.578,23.934,光華活動中心,光華村,37,"水災,震災,土石流",葉光南,8422057,是,否,是,1587.3055735628507,>=1000m,32.88485466345787,2.9625678054497997,6.462984623295492,LOW,False,False,129,C0Z150,吉安光華,0.0,0.0,122.5,1779.0603850043929,吉安光華,0.0,0.0,122.5,SAFE,0.34739156486107625,0.03532733771327599,0.0,0.13218524901535947
2902,花蓮縣吉安鄉,干城村,干城一街97巷1號,121.545,23.9474,干城活動中心,干城村,35,"水災,震災,土石流",林世昌,8526086,是,否,是,1097.6890929394062,>=1000m,75.86982151636477,3.4355737852270685,10.94109607254893,LOW,False,False,15,C2TB30,吉安,0.5,0.5,109.5,381.0113160272979,吉安,0.5,0.5,109.5,SAFE,0.5521391336319248,0.094554408345547,0.25,0.30911501927483775
2903,花蓮縣秀林鄉,文蘭村,6鄰79號,121.5068,23.9479,文蘭活動中心,重光、米亞丸社區,100,"水災,震災,土石流,海嘯",杜明輝,955079056,是,否,是,229.3647286606083,<500m,146.48594900637258,40.07482947832108,53.100337209308435,HIGH,False,False,52,C0T870,鯉魚潭,1.5,1.5,122.5,1375.3308653713948,鯉魚潭,1.5,1.5,122.5,WARNING,0.9152545709721757,0.6521484702410095,0.75,0.7784836409125643
2912,花蓮縣吉安鄉,仁安村,南海三街71號,121.5968,23.9517,仁安活動中心,仁安村,63,"水災,震災,土石流",蔡文隆,8422948,是,否,是,1402.7727595875538,>=1000m,11.673897957801818,2.48112587540129,5.308278014694494,LOW,False,False,129,C0Z150,吉安光華,0.0,0.0,122.5,2306.9587591492823,吉安光華,0.0,0.0,122.5,SAFE,0.42455940237294976,0.02005529934572644,0.0,0.15461238063425034
2916,花蓮縣吉安鄉,南華村,南華四街123號,121.5513,23.9527,南華活動中心,南華村,63,"水災,震災,土石流",蕭萬生,8534573,是,否,是,1921.4088796070275,>=1000m,66.20875504552102,3.5372051178116544,5.041212694559419,LOW,False,False,15,C2TB30,吉安,0.5,0.5,109.5,876.3607119909915,吉安,0.5,0.5,109.5,SAFE,0.20767641568198136,0.016523119149160055,0.25,0.16514368123344147
2921,花蓮縣吉安鄉,稻香村,慶豐路79號,121.5757,23.9548,稻香活動中心,稻香村,40,"水災,震災,土石流",鄧桂英,8533083,是,否,是,1955.7869322085344,>=1000m,34.4716470923611,2.9896407065796526,4.4010761055471725,LOW,False,False,158,72T250,花蓮農改,0.0,1.0,105.5,2561.3429153966354,花蓮農改,0.0,1.0,105.5,SAFE,0.19330021927561836,0.008056734289969017,0.0,0.07007209703345713
2922,花蓮縣吉安鄉,永興村,永興七街86號,121.5683,23.955,永興活動中心,永興村,53,"水災,震災,土石流",陳源忠,8526058,是,否,是,2418.029163623706,>=1000m,43.37071900900258,3.1130438196976895,5.237388978672968,LOW,False,False,158,72T250,花蓮農改,0.0,1.0,105.5,2284.1595812657374,花蓮農改,0.0,1.0,105.5,SAFE,0.0,0.019117727784348594,0.0,0.005735318335304578
2923,花蓮縣吉安鄉,仁和村,南海三街314號,121.5876,23.9563,仁和活動中心,仁和村,101,"水災,震災,土石流",賴明章,8523002,是,否,是,1489.4832833093208,>=1000m,20.858051012973394,2.6294706626134303,5.954029864549349,LOW,False,False,110,O1T840,花蓮,0.0,0.0,124.0,2625.8932328308624,花蓮,0.0,0.0,124.0,SAFE,0.3882988400318448,0.028595951103879816,0.0,0.1444833793423096
2950,花蓮縣秀林鄉,銅門村,9鄰53號,121.4944,23.965,銅門收容所,銅門村,70,"水災,土石流",何文忠,03-8641057,是,否,是,190.71408493132654,<500m,179.4149363591121,50.59950489136634,65.69161032789657,HIGH,False,False,125,C1Z130,銅門,1.0,1.0,122.5,176.20744702615136,銅門,1.0,1.0,122.5,WARNING,0.9314174773451842,0.8186794355364714,0.5,0.7465999477317558
2953,花蓮縣吉安鄉,東昌村,東海六街74號,121.5953,23.9658,東昌活動中心,東昌村,47,"水災,震災,土石流",魏錦添,8528607,是,否,是,182.3483032091469,<500m,12.7919652818599,2.3858777481827196,11.0919025790452,HIGH,False,False,110,O1T840,花蓮,0.0,0.0,124.0,1344.2317692241284,花蓮,0.0,0.0,124.0,WARNING,0.9349158756554348,0.09654896067263338,0.0,0.3561852446811921
2961,花蓮縣吉安鄉,仁里村,仁里五街1號,121.5925,23.9684,仁里活動中心,仁里村,90,水災,楊昇達,8514057,是,否,是,159.53668481844664,<500m,15.263420236622629,2.3320453534028633,11.909060502744392,HIGH,False,False,110,O1T840,花蓮,0.0,0.0,124.0,1461.4385646795447,花蓮,0.0,0.0,124.0,WARNING,0.9444552265352846,0.10735661265117459,0.0,0.36276631308270196
2964,花蓮縣花蓮市,主農里,中順街77號,121.5968,23.9688,主農社區活動中心,主農、主安里,50,"水災,土石流,海嘯",劉冠宏,03-8350088,是,否,是,159.56006583885355,<500m,11.788204079988052,2.0852916026746398,11.0919025790452,HIGH,False,False,110,O1T840,花蓮,0.0,0.0,124.0,1040.9480715672,花蓮,0.0,0.0,124.0,WARNING,0.9444454490721617,0.09654896067263338,0.0,0.35952059537704656
2965,花蓮縣吉安鄉,福興村,福德街1號,121.5624,23.9689,福興活動中心,福興村,106,"水災,震災,土石流",黃朝彬,8526216,是,否,是,1732.0877243913978,>=1000m,42.00292112627102,2.7374269661937927,3.9815316378070924,LOW,False,False,158,72T250,花蓮農改,0.0,1.0,105.5,716.3790885939968,花蓮農改,0.0,1.0,105.5,SAFE,0.2868466392780711,0.002507879576144769,0.0,0.1011486876201683
2970,花蓮縣吉安鄉,南昌村,文化七街64號,121.5797,23.9704,南昌活動中心,南昌村,72,"震災,土石流,海嘯",陳振興,8521081,是,否,是,608.2484556673405,500-1000m,25.80308396239924,2.236406836150464,4.222007525695856,MEDIUM,False,False,158,72T250,花蓮農改,0.0,1.0,105.5,1695.3514801484562,花蓮農改,0.0,1.0,105.5,SAFE,0.7568131683202737,0.005688390503294729,0.0,0.26659112606308416
2973,花蓮縣花蓮市,主學里,中正路210號,121.5997,23.9717,中正國小,主農、主安、主力、主學、主權、主和等里,187,"水災,土石流,海嘯",陳世文,03-8322819,是,否,否,595.5833803816436,500-1000m,10.053610832138373,2.0633090016431463,5.644842063075385,MEDIUM,False,False,110,O1T840,花蓮,0.0,0.0,124.0,654.1500613669099,花蓮,0.0,0.0,124.0,SAFE,0.7621094430080544,0.02450666302696338,0.0,0.27409030396090805
2974,花蓮縣花蓮市,主權里,中原路531號,121.5964,23.9718,中原國小文中三國中預定地,主農、主安、主力、主學、主權、主和等里,85,"水災,土石流,海嘯",陳雅琪,03-8333547,是,否,否,377.32361107019557,<500m,12.500920190748129,1.899358475907323,11.269644086874743,HIGH,False,False,110,O1T840,花蓮,0.0,0.0,124.0,983.5994122259445,花蓮,0.0,0.0,124.0,WARNING,0.8533812014057749,0.09889975273259019,0.0,0.32835334631179824
2981,花蓮縣吉安鄉,吉安村,吉安路二段97號,121.5628,23.9734,吉安國小,吉安村,223,"水災,震災,土石流",廖必偉,8523984,是,否,是,1282.2870749454007,>=1000m,38.51835791059842,2.5225685273632226,6.23101249831571,LOW,False,False,158,72T250,花蓮農改,0.0,1.0,105.5,230.21832852754036,花蓮農改,0.0,1.0,105.5,SAFE,0.47494404418639513,0.03225929673515651,0.0,0.17590820448578523
2982,花蓮縣花蓮市,主睦里,成功街169號,121.6058,23.9734,花蓮城隍廟香客大樓,花蓮市各里,100,"水災,土石流,海嘯",孫吉造,03-8222854,是,否,否,691.09656157919,500-1000m,5.557756346615438,1.6464787335391005,5.158232348189845,MEDIUM,False,False,110,O1T840,花蓮,0.0,0.0,124.0,54.972102315060255,花蓮,0.0,0.0,124.0,SAFE,0.7221677898781071,0.018070809815074272,0.0,0.2581799694018598
2984,花蓮縣吉安鄉,吉安村,中興路355巷7號,121.5643,23.9736,吉安活動中心,吉安村,32,"震災,土石流,海嘯",溫金勝,8535282,是,否,是,1185.7560193295553,>=1000m,37.267526680943924,2.4861361583598276,6.23101249831571,LOW,False,False,158,72T250,花蓮農改,0.0,1.0,105.5,184.4435219756308,花蓮農改,0.0,1.0,105.5,SAFE,0.5153113515185772,0.03225929673515651,0.0,0.19003676205204895
2986,花蓮縣吉安鄉,吉安村,中山路三段99巷18號,121.5742,23.974,五穀宮,全鄉,70,"水災,震災,土石流",林俊德,8521334,是,否,是,632.0689804927032,500-1000m,29.428723824517103,2.1592689189490684,9.105494835587589,MEDIUM,False,False,158,72T250,花蓮農改,0.0,1.0,105.5,1057.9986611802487,花蓮農改,0.0,1.0,105.5,SAFE,0.746851913464987,0.07027692321678405,0.0,0.28248124667778063
2989,花蓮縣吉安鄉,勝安村,慈惠一街30號,121.5869,23.9754,勝安活動中心,勝安村,38,"水災,震災,土石流",陳昌周,8522377,是,否,是,26.711486140471063,<500m,19.817210615197958,1.9624324921252265,9.94120533311857,HIGH,False,False,110,O1T840,花蓮,0.0,0.0,124.0,1961.4236026905837,花蓮,0.0,0.0,124.0,WARNING,1.0,0.08132994974957601,0.0,0.3743989849248728
2990,花蓮縣吉安鄉,宜昌村,吉祥六街52巷9號,121.5832,23.9756,宜昌活動中心,宜昌村,49,"震災,土石流,海嘯",范來新,8535389,是,否,是,88.43600321940451,<500m,22.5843185227157,2.0345347137711642,11.529069061736168,HIGH,False,False,158,72T250,花蓮農改,0.0,1.0,105.5,1965.6336933965915,花蓮農改,0.0,1.0,105.5,WARNING,0.9741880731029028,0.10233088245859429,0.0,0.37166509032359424
2991,花蓮縣花蓮市,主力里,中華路298號,121.5986,23.9756,忠孝國小,主力、主學等里,47,"水災,土石流,海嘯",程立,03-8351218,是,否,否,838.7313401148467,500-1000m,10.99695209504146,1.9020326325532861,5.38181087184933,MEDIUM,False,False,110,O1T840,花蓮,0.0,0.0,124.0,807.5613923204231,花蓮,0.0,0.0,124.0,SAFE,0.6604299539034924,0.021027837830722883,0.0,0.23745883521543917
2992,花蓮縣花蓮市,主權里,中原路666號,121.5938,23.9757,主權社區活動中心,主權里,72,"水災,土石流,海嘯",徐淑憶,03-8333749,是,否,是,513.6344924273213,500-1000m,14.705002565437516,2.001907178787234,7.493312102800307,MEDIUM,False,False,110,O1T840,花蓮,0.0,0.0,124.0,1277.4023737374152,花蓮,0.0,0.0,124.0,SAFE,0.7963787869458996,0.04895434970137085,0.0,0.29341888034147606
2996,花蓮縣吉安鄉,勝安村,慈惠三街118號,121.5867,23.9777,勝安宮,勝安村,1300,"水災,震災,土石流",田後隆,8528658,是,否,是,244.6678204990079,<500m,20.5794336825001,2.1402140006916124,9.94120533311857,HIGH,False,False,110,O1T840,花蓮,0.0,0.0,124.0,2032.39282683622,花蓮,0.0,0.0,124.0,WARNING,0.9088551318752734,0.08132994974957601,0.0,0.3424982810812185
2998,花蓮縣吉安鄉,勝安村,慈惠三街136號,121.586,23.978,聖地慈惠堂,勝安村,700,"震災,土石流",劉幫政,8521334,是,否,是,249.07690211854515,<500m,21.23123350724351,2.1371089187447763,11.529069061736168,HIGH,False,False,110,O1T840,花蓮,0.0,0.0,124.0,2109.8548520788054,花蓮,0.0,0.0,124.0,WARNING,0.9070113443847809,0.10233088245859429,0.0,0.34815323527225156
2999,花蓮縣花蓮市,民權里,公園路53號,121.6142,23.978,中正體育館,花蓮市各里,593,"水災,土石流",劉國華,03-8580686,是,否,否,163.58093786474328,<500m,9.30802860299736,4.892918094671565,26.363678230124577,HIGH,False,False,35,466990,花蓮,0.0,0.0,115.0,331.71661865766674,花蓮,0.0,0.0,115.0,WARNING,0.9427640028704501,0.29853199423859517,0.0,0.4195269992762361
3000,花蓮縣花蓮市,國風里,林政街7號,121.5954,23.9785,國風國中,國華、國風等里,800,"水災,土石流,海嘯",王錦懋,03-8323847,是,否,是,850.2950618651658,500-1000m,13.41998476395762,2.1303246597177687,6.076158220052624,MEDIUM,False,False,110,O1T840,花蓮,0.0,0.0,124.0,1241.1907967435195,花蓮,0.0,0.0,124.0,SAFE,0.6555942426723148,0.03021120896862131,0.0,0.23852134762589655
3004,花蓮縣花蓮市,國風里,明義街107號,121.6029,23.979,明義國小,國華、國光、國威、國治、國魂、國安、國防、國聯、國盛、國風、民主、民治、民有、民族、民生、民權、主商、主勤、主計、主義、主工、主睦、主信等里,185,"水災,土石流,海嘯",郭文隆,03-8326686,是,否,是,466.81370889291094,<500m,7.879598984258429,1.6883778283719704,5.38181087184933,HIGH,False,False,110,O1T840,花蓮,0.0,0.0,124.0,741.5995654114832,花蓮,0.0,0.0,124.0,WARNING,0.8159582781926199,0.021027837830722883,0.0,0.2918937487166338
3021,花蓮縣花蓮市,國威里,林森路252號,121.6068,23.9821,花蓮市公所,花蓮市各里,37,"水災,土石流,海嘯",彭莉萍,03-8322141,是,否,是,146.52872051940807,<500m,6.632800409665176,1.6495050467631258,18.346663986070872,HIGH,False,False,35,466990,花蓮,0.0,0.0,115.0,1015.0903392284187,花蓮,0.0,0.0,115.0,WARNING,0.9498948903748163,0.1924997361598796,0.0,0.39021313247914957
3023,花蓮縣吉安鄉,慶豐村,慶北一街237號,121.5632,23.9825,慶豐活動中心,慶豐村,61,"震災,土石流,海嘯",鄭高富,8535375,是,否,是,395.9120129106355,<500m,43.060526580654525,3.054062657752232,8.793591803394847,HIGH,False,False,158,72T250,花蓮農改,0.0,1.0,105.5,809.0919243268557,花蓮農改,0.0,1.0,105.5,WARNING,0.8456079130570668,0.0661517237599508,0.0,0.3158082866979586
3025,花蓮縣花蓮市,國魂里,建國路161號,121.599,23.9836,國立花蓮農業職業學校,國華、國光、國治、國威、國安、國防、國聯、國盛、國風、國魂等里,382,"水災,土石流,海嘯",賴世榮,03-8312313,是,否,是,897.4672226651662,500-1000m,10.881045917345553,1.7869977613609298,6.076158220052624,MEDIUM,False,False,110,O1T840,花蓮,0.0,0.0,124.0,1378.7057905561414,花蓮,0.0,0.0,124.0,SAFE,0.6358678126608714,0.03021120896862131,0.0,0.23161709712189138
3035,花蓮縣花蓮市,國安里,中山路418號,121.6025,23.9865,花蓮高商,國安、國聯、國魂等里,266,"水災,震災,土石流,海嘯",邱志恆,03-8322532210,是,否,否,568.0751460242752,500-1000m,9.181820969935268,1.4881620318763242,7.7136351263888905,MEDIUM,False,False,110,O1T840,花蓮,0.0,0.0,124.0,1543.7728615717456,花蓮,0.0,0.0,124.0,SAFE,0.77361282234422,0.0518683207866979,0.0,0.2863249840564863
3036,花蓮縣吉安鄉,南華村,南華四街123號,121.5947,23.987,北昌活動中心,北昌村,83,"震災,土石流,海嘯",黃加成,8577346,是,否,是,1323.8960690335284,>=1000m,14.769837312063228,2.142624743733497,6.076158220052624,LOW,False,False,110,O1T840,花蓮,0.0,0.0,124.0,1935.4268340619951,花蓮,0.0,0.0,124.0,SAFE,0.457544016377493,0.03021120896862131,0.0,0.16920376842270893
3047,花蓮縣花蓮市,民勤里,新興路80號,121.6157,23.9887,南美崙營區,花蓮市各里,300,"水災,震災,土石流,海嘯",姜富川中校參謀官,03-8358100轉838413,是,否,否,641.4898498435957,500-1000m,53.2410619704704,17.338655832485607,35.2156442633919,HIGH,False,False,35,466990,花蓮,0.0,0.0,115.0,1523.2507586476884,花蓮,0.0,0.0,115.0,WARNING,0.7429122991512553,0.41560724424698686,0.0,0.38470147797703547
3049,花蓮縣吉安鄉,永安村,太昌路488號,121.5731,23.989,永安活動中心,永安村,156,"震災,土石流,海嘯",郭仁添,8566167,是,否,是,720.3049497893765,500-1000m,39.78151965104822,3.5630515620391807,5.121605755577276,MEDIUM,False,False,158,72T250,花蓮農改,0.0,1.0,105.5,1790.81648957704,花蓮農改,0.0,1.0,105.5,SAFE,0.7099534410756816,0.01758639002957615,0.0,0.2537596213853614
3055,花蓮縣花蓮市,國盛里,國盛二街22號,121.607,23.992,中華國小,國華、國光、國威、國治、國魂、國安、國防、國聯、國盛、國風等里,189,"水災,土石流,海嘯",鍾吳南,03-8324308,是,否,是,125.86720529180973,<500m,9.720102153041147,5.464536406530703,31.585840221764553,HIGH,False,False,35,466990,花蓮,0.0,0.0,115.0,1974.699827493652,花蓮,0.0,0.0,115.0,WARNING,0.9585351122165852,0.3675998056669117,0.0,0.4457672309758783
3061,花蓮縣花蓮市,民政里,永興路20號,121.6255,23.9928,鑄強國小,民樂、民運、民政等里,293,"水災,震災,土石流,海嘯",葉克文,03-8223787,是,否,是,958.2145360534134,500-1000m,31.571852018395248,5.076910715644039,9.583485796382462,MEDIUM,False,False,0,C0TA10,花蓮漁港,0.0,1.0,130.0,1335.1178360518963,花蓮漁港,0.0,1.0,130.0,SAFE,0.6104645323019936,0.0765987856173513,0.0,0.23664222199090315
3064,花蓮縣吉安鄉,太昌村,太昌路488號,121.5639,23.9936,太昌活動中心,太昌村,80,"水災,震災,土石流",周明宗,8569236,是,否,是,685.3096802404449,500-1000m,55.96683001165307,4.069248695210551,11.351899876863683,LOW,False,False,158,72T250,花蓮農改,0.0,1.0,105.5,2035.389920265112,花蓮農改,0.0,1.0,105.5,SAFE,0.7245877449485834,0.09998765988693321,0.0,0.2836020086980841
3069,花蓮縣花蓮市,國富里,中山路903號,121.5947,23.995,明廉國小,國裕、國富里,51,"水災,震災,土石流,海嘯",李玉祥,03-8569088,是,否,是,1410.4946820055084,>=1000m,16.951265967458166,2.0924203179079393,6.249574362026229,LOW,False,False,110,O1T840,花蓮,0.0,0.0,124.0,2700.252125039365,花蓮,0.0,0.0,124.0,SAFE,0.4213302528163414,0.03250479415644843,0.0,0.157217026732654
3074,花蓮縣花蓮市,國興里,介仁街176號,121.5746,23.997,"慈濟大學附設國民中學,小學",國興、國福、國慶等里,344,"水災,震災,土石流,海嘯",蔡亮雄,03-8572823,是,否,是,585.9349796149024,500-1000m,41.80284764576543,3.5314974812682687,11.679359823086289,MEDIUM,False,False,158,72T250,花蓮農改,0.0,1.0,105.5,2646.7726069764085,花蓮農改,0.0,1.0,105.5,SAFE,0.7661442062925778,0.10431861359006163,0.0,0.2994460562794207
3075,花蓮縣花蓮市,民孝里,化道路40巷1號,121.6277,23.9978,美崙國中,民孝、民心、民享、民樂、民運、民政、民德、民立、民勤、民意等里,193,"水災,震災,土石流",吳斯美,03-8223537,是,否,否,833.9110981352978,500-1000m,22.391783885878038,5.956951399772706,20.779965758506155,MEDIUM,False,False,0,C0TA10,花蓮漁港,0.0,1.0,130.0,1115.9718588635928,花蓮漁港,0.0,1.0,130.0,SAFE,0.662445680222474,0.22468235099178177,0.0,0.2992606933754004
3076,花蓮縣花蓮市,國裕里,裕祥路89號,121.5991,23.9979,自強國中,國裕、國富里,330,"水災,震災,土石流,海嘯",鄭程議,03-8579338,是,否,是,1153.9768500787236,>=1000m,13.655917221755475,1.6507051817741458,22.969474967607667,LOW,False,False,110,O1T840,花蓮,0.0,0.0,124.0,2852.439626684722,花蓮,0.0,0.0,124.0,SAFE,0.5286007482181734,0.25364058886660784,0.0,0.261102438536343
3079,花蓮縣花蓮市,民意里,府前路27號,121.6199,23.9987,花蓮高工,民意、民孝、民心、民享、民樂、民運、民政、民德、民立、民勤等里,310,"水災,震災,土石流,海嘯",周婉茹,03-8226108,是,否,否,868.0939694645289,500-1000m,28.14468065085433,6.629473703793932,31.76095701884681,HIGH,False,False,0,C0TA10,花蓮漁港,0.0,1.0,130.0,1912.2915387601668,花蓮漁港,0.0,1.0,130.0,WARNING,0.648151104620454,0.3699158835553745,0.0,0.33782765168377127
3080,花蓮縣花蓮市,國興里,介仁街67號,121.5734,23.9997,慈濟大學人文社會學院,國興、國福、國慶等里,316,"水災,震災,土石流,海嘯",林憲國,03-8572677,是,否,是,262.999834523435,<500m,43.06624617688624,4.116002046718174,16.9444415662068,HIGH,False,False,158,72T250,花蓮農改,0.0,1.0,105.5,2878.5456750962408,花蓮農改,0.0,1.0,105.5,WARNING,0.901189059651979,0.17395407751681727,0.0,0.3676023941332378
3085,花蓮縣花蓮市,國慶里,中山路1段200號,121.5916,24.0004,私立四維高級中學,國興、國福、國慶等里,500,"水災,震災,土石流,海嘯",許素卿,03-8561455,是,否,否,997.6879546261133,500-1000m,19.46583715395163,2.855023895661512,7.014067744150526,MEDIUM,False,False,110,O1T840,花蓮,0.0,0.0,124.0,3375.8214993695633,花蓮,0.0,0.0,124.0,SAFE,0.5939575583669185,0.042615909981519734,0.0,0.22066991842287742
3093,花蓮縣花蓮市,民意里,府前路29號,121.6182,24.0017,行政院國軍退除役官兵輔導委員會花,花蓮縣,10,"水災,震災,土石流,海嘯",陳國榮,03-8223111,是,否,否,714.0556771159402,500-1000m,20.665541373429186,7.117048408967332,31.14001068805605,HIGH,False,False,0,C0TA10,花蓮漁港,0.0,1.0,130.0,2166.6688048193023,花蓮漁港,0.0,1.0,130.0,WARNING,0.712566758717365,0.3617033072027415,0.0,0.3579093577119002
3094,花蓮縣花蓮市,民孝里,林園一街16號,121.631,24.0022,民孝社區活動中心,民孝、民享、民心等里,54,"水災,震災,土石流",黃石貴,03-8223273,是,否,是,451.4819421593597,<500m,15.054856837876637,7.109993283731048,23.29631629983561,HIGH,False,False,0,C0TA10,花蓮漁港,0.0,1.0,130.0,1066.1433763877267,花蓮漁港,0.0,1.0,130.0,WARNING,0.8223697085424708,0.25796336084063654,0.0,0.36521840624205576
3095,花蓮縣新城鄉,嘉新村,嘉南路2巷13號,121.6142,24.0035,衛生福利部東區老人之家養護院區,嘉新村,180,"水災,震災,土石流,海嘯",范家榮,03-8222831,是,否,是,268.8072959171429,<500m,12.588865142924185,4.821059570536891,28.21914984327553,HIGH,False,False,0,C0TA10,花蓮漁港,0.0,1.0,130.0,2616.9949287472386,花蓮漁港,0.0,1.0,130.0,WARNING,0.8987604984246728,0.3230722830486439,0.0,0.4114878593632286
3096,花蓮縣秀林鄉,水源村,107號,121.554,24.0038,水源收容所,水源村,60,"水災,土石流",胡智偉,03-8567603,是,否,是,306.5952166510878,<500m,97.91446930437672,34.13486797740077,38.96900219342221,HIGH,False,False,63,C0T9B0,水源,0.5,0.5,111.5,2163.5736731880133,水源,0.5,0.5,111.5,WARNING,0.8829583651114129,0.4652487946526072,0.25,0.5361100661847766
3097,花蓮縣花蓮市,民意里,民光483-1號,121.6168,24.0039,大陳二村活動中心,民意里,63,"水災,土石流,海嘯",何芳玲,03-8241064,是,否,是,523.838262213627,500-1000m,15.679923638792484,5.619764127680546,22.579067477439054,MEDIUM,False,False,0,C0TA10,花蓮漁港,0.0,1.0,130.0,2387.8448934594753,花蓮漁港,0.0,1.0,130.0,SAFE,0.7921117797295917,0.24847709701125462,0.0,0.3517822520087335
3098,花蓮縣花蓮市,國慶里,達固湖灣大路23號,121.582,24.004,花蓮縣立體育場,花蓮市各里,527,"水災,土石流",林維聖,03-858068615,是,否,否,239.53025720797964,<500m,29.629400099117742,4.769797638419165,12.545815143878286,HIGH,False,False,158,72T250,花蓮農改,0.0,1.0,105.5,3681.6398898525204,花蓮農改,0.0,1.0,105.5,WARNING,0.9110035554575535,0.11577826819352399,0.0,0.3535847248682009
3100,花蓮縣新城鄉,嘉新村,6鄰嘉南一街43巷5號,121.6123,24.0055,嘉新社區活動中心,嘉新村,71,"水災,震災,土石流,海嘯",邱明雄,8221227,是,否,是,76.70905325136313,<500m,10.553095359695256,1.8908720437276212,18.338164367357592,HIGH,False,False,0,C0TA10,花蓮漁港,0.0,1.0,130.0,2878.461333504436,花蓮漁港,0.0,1.0,130.0,WARNING,0.979092043026457,0.1923873210215822,0.0,0.4003984113657346
3113,花蓮縣花蓮市,國慶里,中山路1段500巷15號,121.5872,24.0076,花蓮港天宮,花蓮市各里,300,"水災,震災,土石流,海嘯",蘇正凱總幹事,03-8560017,是,否,是,139.4571817475532,<500m,21.574915604945033,3.0635774364465815,9.956553600272146,HIGH,False,False,82,01T500,北埔,0.0,1.0,136.0,3707.1646029464896,北埔,0.0,1.0,136.0,WARNING,0.9528520628318432,0.08153294445238526,0.0,0.3579581053268607
3119,花蓮縣花蓮市,國福里,沙基拉雅街111號,121.5819,24.0104,國福社區活動中心,國福里,35,"水災,震災,海嘯",呂啟明,03-8580837,是,否,是,246.5301158983241,<500m,24.863680444730065,3.0309614690886977,9.956553600272146,HIGH,False,False,82,01T500,北埔,0.0,1.0,136.0,3741.4527524212917,北埔,0.0,1.0,136.0,WARNING,0.9080763581402521,0.08153294445238526,0.0,0.3422866086848038
3136,花蓮縣新城鄉,佳林村,民有2街29號,121.6023,24.0211,佳林社區活動中心,佳林村,36,"水災,土石流,海嘯",何禮飛,8260919,是,否,是,135.16300447050693,<500m,13.392623038899167,3.0683862645147406,20.707668909513963,HIGH,False,False,82,01T500,北埔,0.0,1.0,136.0,1783.3305927919157,北埔,0.0,1.0,136.0,WARNING,0.9546477996833207,0.22372615983167451,0.0,0.4012445778386645
3141,花蓮縣新城鄉,嘉里村,嘉里路163號,121.6074,24.0244,國軍805醫院,嘉里村,100,"水災,震災,土石流,海嘯",高志雄,03-8263151,是,否,是,413.5982511542937,<500m,15.048891730401076,2.086045075465526,11.09749506434638,HIGH,False,False,82,01T500,北埔,0.0,1.0,136.0,1435.685130503325,北埔,0.0,1.0,136.0,WARNING,0.8382118910185931,0.09662292634447883,0.0,0.3223610397598512
3149,花蓮縣新城鄉,大漢村,明潭街27號,121.6298,24.0271,七星潭社區活動中心,大漢村,27,"水災,土石流",李添富,8265717,是,否,是,104.62572912335665,<500m,17.134882584964796,11.921133269941862,27.981010609269628,HIGH,False,False,82,01T500,北埔,0.0,1.0,136.0,2804.378971168849,北埔,0.0,1.0,136.0,WARNING,0.9674178618271717,0.3199226764806488,0.0,0.4345730545837047
3150,花蓮縣新城鄉,北埔村,北埔路13號,121.6062,24.0275,基督教芥菜種會,北埔村,41,"水災,震災,土石流,海嘯",吳雅琴,03-8260653,是,否,是,387.45439583256916,<500m,15.91479856246956,2.0400092442477233,11.09749506434638,HIGH,False,False,82,01T500,北埔,0.0,1.0,136.0,1075.5305859283214,北埔,0.0,1.0,136.0,WARNING,0.8491447150293451,0.09662292634447883,0.0,0.3261875281636144
3166,花蓮縣新城鄉,北埔村,北埔路259號,121.6032,24.0341,北埔社區活動中心,北埔村,35,"水災,震災,土石流,海嘯",王秋香,8269669,是,否,是,406.35940715450823,<500m,18.40573471468322,1.6536745922321767,10.310758259073761,HIGH,False,False,82,01T500,北埔,0.0,1.0,136.0,354.0254649080762,北埔,0.0,1.0,136.0,WARNING,0.8412390270900346,0.08621762114765155,0.0,0.3202989458258076
3173,花蓮縣新城鄉,大漢村,19鄰民有街101號,121.61,24.0368,大漢社區活動中心,大漢村,70,"水災,震災,土石流,海嘯",李添富,8265717,是,否,是,1159.5248493544784,>=1000m,16.714987252939117,0.992821363376717,5.7570947586959935,LOW,False,False,82,01T500,北埔,0.0,1.0,136.0,564.1574331070841,北埔,0.0,1.0,136.0,SAFE,0.5262806887262894,0.02599130636546113,0.0,0.19199563296383965
3175,花蓮縣新城鄉,大漢村,民有街2號,121.6119,24.038,復興南營區,新城村、順安村、康樂村、大漢村、北埔村,120,"水災,震災,土石流,海嘯",陳尚庭上尉,03-8269732,是,否,是,1388.803411381067,>=1000m,16.317907092886472,0.9585528052916104,5.7570947586959935,LOW,False,False,82,01T500,北埔,0.0,1.0,136.0,763.4153542264451,北埔,0.0,1.0,136.0,SAFE,0.4304010972418594,0.02599130636546113,0.0,0.15843777594428912
3181,花蓮縣新城鄉,大漢村,光復路572號,121.6042,24.0399,新城鄉立圖書館,北埔村、大漢村,58,"水災,震災,土石流,海嘯",黃志明,03-8261790,是,否,是,785.0788818428689,500-1000m,20.084462564208952,1.705347499886436,5.421672053536808,MEDIUM,False,False,134,C0Z180,新城,0.0,0.5,149.5,94.69954148640163,新城,0.0,0.5,149.5,SAFE,0.6828663113883937,0.021555037979724002,0.0,0.24546972037985498
3182,花蓮縣新城鄉,大漢村,大安街1號,121.6048,24.0405,新城鄉原住民文化館,北埔村、康樂村,90,"水災,震災,土石流,海嘯",陳薇,03-8267223,是,否,是,872.3713070975538,500-1000m,19.945362618556427,1.675909520788113,5.03508515548358,MEDIUM,False,False,134,C0Z180,新城,0.0,0.5,149.5,8.08382676367874,新城,0.0,0.5,149.5,SAFE,0.6463624097626772,0.01644207690763496,0.0,0.2311594664892275
3183,花蓮縣新城鄉,北埔村,樹林街57巷9號,121.597687,24.040698,樹林腳社區活動中心,北埔村,39,"水災,震災,土石流,海嘯",王秋香,8269669,是,否,是,208.21854394090005,<500m,23.67974947956686,2.7414888820790906,15.531398502649456,HIGH,False,False,134,C0Z180,新城,0.0,0.5,149.5,731.8047202611586,新城,0.0,0.5,149.5,WARNING,0.9240974716535957,0.15526530608266642,0.0,0.3700137069035584
3205,花蓮縣新城鄉,康樂村,廣安1街112號,121.609904,24.053809,康樂社區活動中心,康樂村,30,"水災,震災,土石流,海嘯",賴明進,03-8260352,是,否,是,851.9657019512023,500-1000m,18.581362235789395,1.6879824837265158,15.250176501369083,MEDIUM,False,False,134,C0Z180,新城,0.0,0.5,149.5,1561.602289700896,新城,0.0,0.5,149.5,SAFE,0.6548956152579117,0.15154589098504573,0.0,0.2746772326357828
3206,花蓮縣秀林鄉,佳民村,119號,121.5994,24.0539,佳民國小收容所,佳民村,60,"水災,震災,土石流,海嘯",總務主任黃寶賢,03-8264900,是,否,是,998.4831254014551,500-1000m,29.34205313771202,6.501046415842587,10.3040420794735,MEDIUM,False,False,134,C0Z180,新城,0.0,0.5,149.5,1586.6811393570913,新城,0.0,0.5,149.5,SAFE,0.5936250342598837,0.08612879360325669,0.0,0.23360740007193628
3258,花蓮縣秀林鄉,景美村,加灣106號,121.6067,24.0825,景美活動中心,景美村,100,"水災,震災,土石流,海嘯",呂愛美,03-8267603,是,否,是,872.3441657734611,500-1000m,47.315089143748196,46.34183156733048,53.92895872911961,HIGH,False,False,1,C0TA20,加灣,0.0,0.5,137.5,234.15969779232478,加灣,0.0,0.5,137.5,WARNING,0.6463737597076671,0.6631077386373907,0.0,0.42516313748890067
3312,花蓮縣新城鄉,順安村,順安52-2號,121.621,24.1057,北三棧社區活動中心,順安村,35,"水災,震災,土石流,海嘯",黃仲祥,8611280,是,否,是,739.9839503238238,500-1000m,12.329502772462362,2.9789915508517786,12.918183739701636,MEDIUM,False,False,123,C1Z110,三棧,0.0,0.0,171.0,1959.1824543604723,三棧,0.0,0.0,171.0,SAFE,0.7017240867244192,0.12070317937003029,0.0,0.2818143841645558
3355,花蓮縣新城鄉,順安村,草林158號,121.6365,24.1172,順安農宅示範中心,順安村,23,"水災,土石流,海嘯",黃仲祥,8611280,是,否,是,2325.885086978082,>=1000m,15.44749870788106,5.007235509573543,7.7393833410007815,LOW,False,False,123,C1Z110,三棧,0.0,0.0,171.0,3206.6112049985986,三棧,0.0,0.0,171.0,SAFE,0.03853276271624517,0.052208864192719556,0.0,0.029149126208501675
3357,花蓮縣秀林鄉,秀林村,秀林路76號,121.6244,24.118,秀林國小收容所,秀林村,100,"水災,震災,土石流,海嘯",總務主任林正雄,03-8611393,是,否,是,1093.8779151362487,>=1000m,54.640391594274604,40.620257815076855,58.75223852100248,HIGH,False,False,123,C1Z110,三棧,0.0,0.0,171.0,1989.7870875730628,三棧,0.0,0.0,171.0,WARNING,0.5537328900111143,0.7268999725177416,0.0,0.41187650325921243
3378,花蓮縣新城鄉,新城村,仁愛路2巷172號,121.6497,24.1257,禪光育幼院,新城村,105,"水災,震災,土石流,海嘯",許淑媛,03-8612555,是,否,是,1812.7769067666259,>=1000m,16.777234698315056,3.6145923866344947,16.98651789809517,LOW,False,False,135,C0Z190,富世,0.0,0.0,188.0,3150.364876479076,富世,0.0,0.0,188.0,SAFE,0.25310407837326065,0.17451057502898049,0.0,0.14093959993933536
3387,花蓮縣新城鄉,新城村,博愛路31號,121.6513,24.1266,天主教聲遠之家,新城村,53,"水災,震災,土石流,海嘯",黃佩瑩,03-8610075,是,否,是,1640.0888876148122,>=1000m,15.086209178457455,4.0179216373649975,16.98651789809517,LOW,False,False,135,C0Z190,富世,0.0,0.0,188.0,3184.7043612566667,富世,0.0,0.0,188.0,SAFE,0.32531866566036705,0.17451057502898049,0.0,0.1662147054898226
3392,花蓮縣新城鄉,新城村,博愛路66號,121.6502,24.1288,新城社區活動中心,新城村,23,"水災,震災,土石流,海嘯",胡國雄,8611519,是,否,是,1509.2508074917052,>=1000m,16.8153830422079,4.176377221991437,16.98651789809517,LOW,False,False,135,C0Z190,富世,0.0,0.0,188.0,2932.384172182049,富世,0.0,0.0,188.0,SAFE,0.38003246690688675,0.17451057502898049,0.0,0.1853645359261045
3393,花蓮縣新城鄉,新城村,新興1街62號,121.6452,24.1301,興田社區活動中心,新城村,45,"水災,震災,土石流,海嘯",胡國雄,8611519,是,否,是,1540.2765511758948,>=1000m,23.470336727220186,4.295844183854561,17.960988790702757,LOW,False,False,135,C0Z190,富世,0.0,0.0,188.0,2483.1770184875386,富世,0.0,0.0,188.0,SAFE,0.3670581373243602,0.18739883317967562,0.0,0.18468999801742875
3437,花蓮縣秀林鄉,富世村,97號,121.6277,24.1473,富世活動中心,富世村,100,"水災,震災,土石流,海嘯",伊虹‧比岱,03-8611829,是,否,是,300.9254871580784,<500m,87.57700055414277,52.449727904370725,70.42853205915141,HIGH,False,False,135,C0Z190,富世,0.0,0.0,188.0,204.09821504949636,富世,0.0,0.0,188.0,WARNING,0.88532932968312,0.8813295060261958,0.0,0.5742641171969507
3482,花蓮縣秀林鄉,崇德村,72號,121.6524,24.162,崇德國小收容所,崇德,100,"水災,震災,土石流,海嘯",陳月華,03-8621201,是,否,是,1763.8145190807445,>=1000m,52.220184058499484,45.538416266522226,62.16362200527847,HIGH,False,False,33,81T1A0,崇德國小,0.0,0.0,145.5,81.35916987847337,崇德國小,0.0,0.0,145.5,WARNING,0.27357914454573684,0.7720186018476706,0.0,0.32735828114530907
3789,花蓮縣秀林鄉,和平村,三鄰108號,121.7483,24.3083,和平活動中心,和平村和仁,100,"水災,震災,土石流,海嘯",蔡金郎,03-8681113,是,否,是,872.5169528031308,500-1000m,34.33103307670613,30.480571367650082,46.29084688425774,HIGH,False,False,7,C0TA40,秀林,1.0,12.0,264.0,1842.635043206134,秀林,1.0,12.0,264.0,WARNING,0.6463015037162123,0.562086807189104,0.5,0.5698315684574055
